{"type": "FeatureCollection","crs":                     {"type": "name", "properties": { "name":                     "urn:ogc:def:crs:OGC:1.3:CRS84" } },"features": [{"type": "Feature", "properties": {"name": "Abu_Ghraib", "55": [1, "Abu_Ghraib", "Imc", "Idps", "Phc"]}, "geometry": {"type": "Point", "coordinates": [44.082918, 33.29612]}}, {"type": "Feature", "properties": {"name": "Al Batraa", "52": [2, "Ameriyat-Fullujah", "Doh", "Idps", "Phc"]}, "geometry": {"type": "Point", "coordinates": [44.012341, 33.131705]}}, {"type": "Feature", "properties": {"name": "Al- Amal Al -Manshood", "49": [60, "Ameriyat-Fullujah", "Doh", "Idps", "Phc"], "51": [38, "Ameriyat-Fullujah", "Doh", "Idps", "Phc"], "52": [2, "Ameriyat-Fullujah", "Doh", "Idps", "Phc"]}, "geometry": {"type": "Point", "coordinates": [43.85168, 33.148139]}}, {"type": "Feature", "properties": {"name": "Al-Amal", "35": [2, "Al-Nakheeb", "Uims", "Idps", "Phc"], "44": [1, "Al-Nakheeb", "Uims", "Idps", "Phc"]}, "geometry": {"type": "Point", "coordinates": [42.25, 32.03]}}, {"type": "Feature", "properties": {"name": "Al-Habanyia1", "56": [1, "Amriate_Alfallujah1", "Iom", "Idps", "Phc"]}, "geometry": {"type": "Point", "coordinates": [43.571611, 33.2448]}}, {"type": "Feature", "properties": {"name": "Al-Nabi Younis", "30": [4, "Baghdad_Resafa", "Doh", "Idps", "Phc"]}, "geometry": {"type": "Point", "coordinates": [44.643067, 33.344709]}}, {"type": "Feature", "properties": {"name": "Al-Numanyiah", "66": [1, "Kut1", "Doh", "Idps", "Phc"]}, "geometry": {"type": "Point", "coordinates": [45.417415, 32.55282]}}, {"type": "Feature", "properties": {"name": "Al-Salam", "32": [3, "Ameriyat-Fullujah", "Uims", "Idps", "Phc"], "60": [1, "Ameriyat-Fullujah", "Uims", "Idps", "Phc"]}, "geometry": {"type": "Point", "coordinates": [43.85, 33.16]}}, {"type": "Feature", "properties": {"name": "Albatar & Caravanat Alzurgan", "32": [2, "Zubydia", "Doh", "Idps", "Phc"]}, "geometry": {"type": "Point", "coordinates": [45.7161566667, 32.5518166667]}}, {"type": "Feature", "properties": {"name": "Alqosh", "54": [1, "Qasrok", "Pu-Ami", "Idps", "Phc"]}, "geometry": {"type": "Point", "coordinates": [43.098872, 36.736717]}}, {"type": "Feature", "properties": {"name": "Arbat Idp", "7": [1, "Arbat", "Emergency", "Idps", "Phc"], "27": [1, "Arbat", "Emergency", "Idps", "Phc"], "28": [1, "Arbat", "Emergency", "Idps", "Phc"], "32": [3, "Arbat", "Emergency", "Idps", "Phc"], "33": [1, "Arbat", "Emergency", "Idps", "Phc"], "37": [1, "Arbat", "Emergency", "Idps", "Phc"], "56": [2, "Arbat", "Emergency", "Idps", "Phc"], "57": [1, "Arbat", "Emergency", "Idps", "Phc"], "59": [11, "Arbat", "Emergency", "Idps", "Phc"], "60": [1, "Arbat", "Emergency", "Idps", "Phc"]}, "geometry": {"type": "Point", "coordinates": [45.590574, 35.4344959]}}, {"type": "Feature", "properties": {"name": "Arbat Refugee", "18": [1, "Arbat", "Emergency", "Refugees", "Phc"], "22": [2, "Arbat", "Emergency", "Refugees", "Phc"], "31": [1, "Arbat", "Emergency", "Refugees", "Phc"], "34": [3, "Arbat", "Emergency", "Refugees", "Phc"], "35": [2, "Arbat", "Emergency", "Refugees", "Phc"], "36": [4, "Arbat", "Emergency", "Refugees", "Phc"], "37": [7, "Arbat", "Emergency", "Refugees", "Phc"], "39": [1, "Arbat", "Emergency", "Refugees", "Phc"], "43": [2, "Arbat", "Emergency", "Refugees", "Phc"], "46": [1, "Arbat", "Emergency", "Refugees", "Phc"], "49": [1, "Arbat", "Emergency", "Refugees", "Phc"], "51": [2, "Arbat", "Emergency", "Refugees", "Phc"], "56": [2, "Arbat", "Emergency", "Idps", "Phc"], "63": [1, "Arbat", "Emergency", "Idps", "Phc"]}, "geometry": {"type": "Point", "coordinates": [45.59069, 35.43057]}}, {"type": "Feature", "properties": {"name": "Ashti", "30": [1, "Ashti", "Emergency", "Idps", "Phc"], "31": [1, "Ashti", "Emergency", "Idps", "Phc"], "39": [2, "Ashti", "Emergency", "Idps", "Phc"], "62": [1, "Arbat", "Emergency", "Idps", "Phc"], "63": [2, "Arbat", "Emergency", "Idps", "Phc"], "64": [2, "Arbat", "Emergency", "Idps", "Phc"], "66": [1, "Arbat", "Emergency", "Idps", "Phc"]}, "geometry": {"type": "Point", "coordinates": [45.5886199999999, 35.422128]}}, {"type": "Feature", "properties": {"name": "Awen Eshar", "19": [1, "Erbil", "Iom", "Idps", "Phc"]}, "geometry": {"type": "Point", "coordinates": [44.070651, 36.140377]}}, {"type": "Feature", "properties": {"name": "Badawa", "64": [1, "Daqoq", "Mdm", "Idps", "Phc"]}, "geometry": {"type": "Point", "coordinates": [44.6110683333333, 35.2433716666666]}}, {"type": "Feature", "properties": {"name": "Baharka", "2": [1, "Bahrka", "Imc", "Idps", "Phc"], "3": [1, "Bahrka", "Imc", "Idps", "Phc"], "4": [1, "Bahrka", "Imc", "Idps", "Phc"], "12": [1, "Bahrka", "Imc", "Idps", "Phc"], "59": [1, "Bahrka", "Imc", "Idps", "Phc"], "63": [1, "Bahrka", "Imc", "Idps", "Phc"]}, "geometry": {"type": "Point", "coordinates": [43.990685, 36.295355]}}, {"type": "Feature", "properties": {"name": "Bajit Kandala", "6": [1, "Zakho", "Pu-Ami", "Idps", "Phc"], "10": [1, "Zakho", "Skma", "Idps", "Phc"], "18": [1, "Zakho", "Pu-Ami", "Idps", "Phc"], "23": [1, "Zakho", "Pu-Ami", "Idps", "Phc"], "31": [1, "Zakho", "Pu-Ami", "Idps", "Phc"], "71": [1, "Zakho", "Pu-Ami", "Idps", "Phc"]}, "geometry": {"type": "Point", "coordinates": [42.4409, 37.0535]}}, {"type": "Feature", "properties": {"name": "Bajit Kandala2", "23": [1, "Zakho", "Ksma", "Idps", "Phc"], "24": [1, "Zakho", "Ksma", "Idps", "Phc"], "25": [2, "Zakho", "Ksma", "Idps", "Phc"], "29": [1, "Zakho", "Ksma", "Idps", "Phc"]}, "geometry": {"type": "Point", "coordinates": [42.4409, 37.0535]}}, {"type": "Feature", "properties": {"name": "Balad", "55": [5, "Samara", "Iom", "Idps", "Phc"], "56": [3, "Samara", "Iom", "Idps", "Phc"], "57": [12, "Samara", "Iom", "Idps", "Phc"], "59": [3, "Samara", "Iom", "Idps", "Phc"], "61": [5, "Samara", "Iom", "Idps", "Phc"], "63": [1, "Samara", "Iom", "Idps", "Phc"]}, "geometry": {"type": "Point", "coordinates": [44.150284, 34.01097]}}, {"type": "Feature", "properties": {"name": "Bardarash", "31": [1, "Bardarash", "Pu-Ami", "Idps", "Phc"], "32": [2, "Bardarash", "Pu-Ami", "Idps", "Phc"], "34": [1, "Bardarash", "Pu-Ami", "Idps", "Phc"], "36": [2, "Bardarash", "Pu-Ami", "Idps", "Phc"], "37": [2, "Bardarash", "Pu-Ami", "Idps", "Phc"], "39": [3, "Bardarash", "Pu-Ami", "Idps", "Phc"], "40": [4, "Bardarash", "Pu-Ami", "Idps", "Phc"], "41": [2, "Bardarash", "Pu-Ami", "Idps", "Phc"], "44": [1, "Bardarash", "Pu-Ami", "Idps", "Phc"], "46": [1, "Bardarash", "Pu-Ami", "Idps", "Phc"], "50": [1, "Bardarash", "Pu-Ami", "Idps", "Phc"]}, "geometry": {"type": "Point", "coordinates": [43.56717, 36.49315]}}, {"type": "Feature", "properties": {"name": "Berseve 2", "19": [2, "Berseve 2", "Malteser", "Idps", "Phc"], "24": [1, "Berseve 2", "Malteser", "Idps", "Phc"], "29": [1, "Berseve 2", "Malteser", "Idps", "Phc"], "40": [1, "Berseve 2", "Malteser", "Idps", "Phc"], "44": [1, "Berseve 2", "Malteser", "Idps", "Phc"], "46": [1, "Berseve 2", "Malteser", "Idps", "Phc"], "48": [1, "Berseve 2", "Malteser", "Idps", "Phc"], "49": [1, "Berseve 2", "Malteser", "Idps", "Phc"], "50": [1, "Berseve 2", "Malteser", "Idps", "Phc"], "51": [1, "Berseve 2", "Malteser", "Idps", "Phc"]}, "geometry": {"type": "Point", "coordinates": [42.85398, 37.1798]}}, {"type": "Feature", "properties": {"name": "Brazilian", "12": [2, "Ankawa", "Jhas", "Idps", "Phc"], "29": [8, "Ankawa", "Imc", "Idps", "Phc"]}, "geometry": {"type": "Point", "coordinates": [44.328905, 36.4024883333]}}, {"type": "Feature", "properties": {"name": "Chamchamal", "32": [1, "Chamchamal", "Wvi", "Idps", "Phc"]}, "geometry": {"type": "Point", "coordinates": [44.8098516667, 35.5265483333]}}, {"type": "Feature", "properties": {"name": "Chamishku", "22": [1, "Amedi", "Mdm", "Idps", "Phc"]}, "geometry": {"type": "Point", "coordinates": [42.667525, 37.1757833333]}}, {"type": "Feature", "properties": {"name": "Dahuk", "42": [1, "Dahuk", "Pu-Ami", "Idps", "Phc"], "54": [1, "Dahuk", "Pu-Ami", "Idps", "Phc"]}, "geometry": {"type": "Point", "coordinates": [42.949419, 36.864712]}}, {"type": "Feature", "properties": {"name": "Darashakran", "3": [4, "Erbil", "Imc", "Refugees", "Phc"], "4": [2, "Erbil", "Imc", "Refugees", "Phc"], "6": [2, "Erbil", "Imc", "Refugees", "Phc"], "12": [1, "Erbil", "Imc", "Refugees", "Phc"], "13": [3, "Erbil", "Imc", "Refugees", "Phc"], "14": [1, "Erbil", "Imc", "Refugees", "Phc"], "17": [1, "Erbil", "Imc", "Refugees", "Phc"], "18": [1, "Erbil", "Imc", "Refugees", "Phc"], "28": [1, "Erbil", "Imc", "Refugees", "Phc"], "29": [2, "Erbil", "Imc", "Refugees", "Phc"], "31": [5, "Erbil", "Imc", "Refugees", "Phc"], "32": [9, "Erbil", "Imc", "Refugees", "Phc"], "33": [4, "Erbil", "Imc", "Refugees", "Phc"], "34": [3, "Erbil", "Imc", "Refugees", "Phc"], "35": [2, "Erbil", "Imc", "Refugees", "Phc"], "36": [1, "Erbil", "Imc", "Refugees", "Phc"], "37": [5, "Erbil", "Imc", "Refugees", "Phc"], "38": [1, "Erbil", "Imc", "Refugees", "Phc"], "39": [3, "Erbil", "Imc", "Refugees", "Phc"], "40": [1, "Erbil", "Imc", "Refugees", "Phc"], "41": [3, "Erbil", "Imc", "Refugees", "Phc"], "42": [1, "Erbil", "Imc", "Refugees", "Phc"], "43": [2, "Erbil", "Imc", "Refugees", "Phc"], "47": [1, "Erbil", "Imc", "Refugees", "Phc"], "48": [4, "Erbil", "Imc", "Refugees", "Phc"], "50": [2, "Erbil", "Imc", "Refugees", "Phc"], "53": [1, "Erbil", "Imc", "Refugees", "Phc"], "54": [2, "Erbil", "Imc", "Refugees", "Phc"], "55": [2, "Erbil", "Imc", "Refugees", "Phc"], "57": [2, "Erbil", "Imc", "Refugees", "Phc"], "65": [1, "Erbil", "Imc", "Refugees", "Phc"], "66": [1, "Erbil", "Imc", "Refugees", "Phc"], "68": [2, "Erbil", "Imc", "Refugees", "Phc"], "70": [1, "Erbil", "Imc", "Refugees", "Phc"]}, "geometry": {"type": "Point", "coordinates": [43.8925916666666, 36.4737699999999]}}, {"type": "Feature", "properties": {"name": "Dary Clinic", "52": [1, "", "Doh", "Idps", "Phc"], "61": [3, "Salihiya", "Dary", "Idps", "Phc"]}, "geometry": {"type": "Point", "coordinates": [44.398626, 33.32276]}}, {"type": "Feature", "properties": {"name": "Dawodia", "27": [1, "Amedi", "Mdm", "Idps", "Phc"], "34": [1, "Amedi", "Mdm", "Idps", "Phc"], "35": [1, "Amedi", "Mdm", "Idps", "Phc"], "38": [2, "Amedi", "Mdm", "Idps", "Phc"], "39": [3, "Amedi", "Mdm", "Idps", "Phc"], "45": [1, "Amedi", "Mdm", "Idps", "Phc"], "53": [1, "Amedi", "Mdm", "Idps", "Phc"], "55": [2, "Amedi", "Mdm", "Idps", "Phc"], "58": [1, "Amedi", "Mdm", "Idps", "Phc"], "61": [1, "Amedi", "Mdm", "Idps", "Phc"], "67": [1, "Amedi", "Mdm", "Idps", "Phc"]}, "geometry": {"type": "Point", "coordinates": [43.222998, 37.089891]}}, {"type": "Feature", "properties": {"name": "Dokan", "22": [1, "Dokan", "Wvi", "Idps", "Phc"], "32": [1, "Dokan", "Wvi", "Idps", "Phc"]}, "geometry": {"type": "Point", "coordinates": [45.4033133333, 35.565845]}}, {"type": "Feature", "properties": {"name": "Domez", "41": [9, "Hay Rasheed", "Doh", "Idps", "Phc"]}, "geometry": {"type": "Point", "coordinates": [44.3762866667, 35.3863533333]}}, {"type": "Feature", "properties": {"name": "Domiz", "1": [3, "Domiz", "Msf", "Refugees", "Phc"], "2": [2, "Domiz", "Msf", "Refugees", "Phc"], "5": [2, "Domiz", "Msf", "Refugees", "Phc"], "7": [2, "Domiz", "Msf", "Refugees", "Phc"], "8": [2, "Domiz", "Msf", "Refugees", "Phc"], "9": [2, "Domiz", "Msf", "Refugees", "Phc"], "10": [1, "Domiz", "Msf", "Refugees", "Phc"], "17": [1, "Domiz", "Msf", "Refugees", "Phc"], "18": [2, "Domiz", "Msf", "Refugees", "Phc"], "19": [1, "Domiz", "Msf", "Refugees", "Phc"], "20": [1, "Domiz", "Msf", "Refugees", "Phc"], "28": [1, "Domiz", "Msf", "Refugees", "Phc"], "30": [1, "Domiz", "Msf", "Refugees", "Phc"], "31": [2, "Domiz", "Msf", "Refugees", "Phc"], "32": [1, "Domiz", "Msf", "Refugees", "Phc"], "34": [1, "Domiz", "Msf", "Refugees", "Phc"], "41": [4, "Domiz", "Doh", "Refugees", "Phc"], "42": [1, "Domiz", "Doh", "Refugees", "Phc"], "43": [4, "Domiz", "Doh", "Refugees", "Phc"], "45": [7, "Domiz", "Doh", "Refugees", "Phc"], "48": [1, "Domiz", "Doh", "Refugees", "Phc"], "49": [3, "Domiz", "Doh", "Refugees", "Phc"], "50": [1, "Domiz", "Doh", "Refugees", "Phc"], "51": [1, "Domiz", "Doh", "Refugees", "Phc"], "52": [1, "Domiz", "Doh", "Refugees", "Phc"], "57": [1, "Domiz", "Doh", "Refugees", "Phc"], "59": [1, "Domiz", "Doh", "Refugees", "Phc"], "60": [2, "Domiz", "Doh", "Refugees", "Phc"], "62": [2, "Domiz", "Doh", "Refugees", "Phc"], "63": [1, "Domiz", "Doh", "Refugees", "Phc"], "66": [1, "Domiz", "Doh", "Refugees", "Phc"], "67": [1, "Domiz", "Doh", "Refugees", "Phc"], "68": [3, "Domiz", "Doh", "Refugees", "Phc"], "70": [1, "Domiz", "Doh", "Refugees", "Phc"], "71": [2, "Domiz", "Doh", "Refugees", "Phc"]}, "geometry": {"type": "Point", "coordinates": [42.8851816667, 36.78106]}}, {"type": "Feature", "properties": {"name": "Domiz2", "22": [1, "Domiz", "Imc", "Refugees", "Phc"], "33": [4, "Domiz", "Imc", "Refugees", "Phc"], "67": [1, "Domiz", "Imc", "Refugees", "Phc"]}, "geometry": {"type": "Point", "coordinates": [42.8912633333, 36.7638]}}, {"type": "Feature", "properties": {"name": "Esiyan", "26": [19, "Shikhan", "Yzeda", "Idps", "Phc"]}, "geometry": {"type": "Point", "coordinates": [43.2662883333, 36.722525]}}, {"type": "Feature", "properties": {"name": "Gawilan", "7": [1, "Bardarash", "Pu-Ami", "Refugees", "Phc"], "9": [1, "Bardarash", "Pu-Ami", "Refugees", "Phc"], "14": [2, "Bardarash", "Pu-Ami", "Refugees", "Phc"], "22": [3, "Bardarash", "Pu-Ami", "Refugees", "Phc"], "26": [1, "Bardarash", "Pu-Ami", "Refugees", "Phc"], "27": [2, "Bardarash", "Pu-Ami", "Refugees", "Phc"], "28": [1, "Bardarash", "Pu-Ami", "Refugees", "Phc"], "30": [1, "Bardarash", "Pu-Ami", "Refugees", "Phc"], "31": [1, "Bardarash", "Pu-Ami", "Refugees", "Phc"], "32": [1, "Bardarash", "Pu-Ami", "Refugees", "Phc"], "37": [3, "Bardarash", "Pu-Ami", "Refugees", "Phc"], "41": [1, "Bardarash", "Pu-Ami", "Refugees", "Phc"], "42": [1, "Bardarash", "Pu-Ami", "Refugees", "Phc"], "44": [1, "Bardarash", "Pu-Ami", "Refugees", "Phc"], "45": [1, "Bardarash", "Pu-Ami", "Refugees", "Phc"], "48": [1, "Bardarash", "Pu-Ami", "Refugees", "Phc"]}, "geometry": {"type": "Point", "coordinates": [43.61581064, 36.33849565]}}, {"type": "Feature", "properties": {"name": "Habeeb-All-Malih", "35": [2, "Habeeb Almalih Hc", "Doh", "Idps", "Phc"]}, "geometry": {"type": "Point", "coordinates": [44.0110433333, 36.23216]}}, {"type": "Feature", "properties": {"name": "Harsham", "3": [1, "Bahrka", "Pu-Ami", "Idps", "Phc"], "4": [1, "Bahrka", "Imc", "Idps", "Phc"], "5": [2, "Bahrka", "Imc", "Idps", "Phc"], "6": [2, "Bahrka", "Imc", "Idps", "Phc"], "9": [2, "Bahrka", "Imc", "Idps", "Phc"]}, "geometry": {"type": "Point", "coordinates": [43.994913, 36.256285]}}, {"type": "Feature", "properties": {"name": "Hevi", "32": [5, "Dahuk", "Doh", "Idps", "Hospital"], "33": [11, "Dahuk", "Doh", "Idps", "Hospital"], "35": [9, "Dahuk", "Doh", "Idps", "Hospital"], "36": [7, "Dahuk", "Doh", "Idps", "Hospital"], "37": [7, "Dahuk", "Doh", "Idps", "Hospital"], "38": [9, "Dahuk", "Doh", "Idps", "Hospital"], "40": [5, "Dahuk", "Doh", "Idps", "Hospital"], "42": [7, "Dahuk", "Doh", "Idps", "Hospital"], "43": [12, "Dahuk", "Doh", "Idps", "Hospital"], "49": [9, "Dahuk", "Doh", "Idps", "Hospital"]}, "geometry": {"type": "Point", "coordinates": [43.00589, 36.850119]}}, {"type": "Feature", "properties": {"name": "Kabarto 1", "48": [1, "Sumel", "Step-In", "Idps", "Phc"]}, "geometry": {"type": "Point", "coordinates": [42.858385, 36.7883316667]}}, {"type": "Feature", "properties": {"name": "Khanaqin", "57": [2, "Khanaqin1", "Iom", "Idps", "Phc"], "59": [1, "Khanaqin1", "Iom", "Idps", "Phc"], "62": [1, "Khanaqin1", "Iom", "Idps", "Phc"]}, "geometry": {"type": "Point", "coordinates": [45.383752, 34.349796]}}, {"type": "Feature", "properties": {"name": "Khanke", "26": [2, "Khanke", "Doh", "Idps", "Phc"]}, "geometry": {"type": "Point", "coordinates": [42.7709883333, 36.7831166667]}}, {"type": "Feature", "properties": {"name": "Khernabat Agiculture", "55": [1, "Abu_Ghraib", "Imc", "Idps", "Phc"]}, "geometry": {"type": "Point", "coordinates": [44.192407, 33.22229]}}, {"type": "Feature", "properties": {"name": "Kowergosek", "14": [1, "Erbil", "Imc", "Refugees", "Phc"], "19": [3, "Erbil", "Imc", "Refugees", "Phc"], "22": [2, "Erbil", "Imc", "Refugees", "Phc"], "26": [1, "Erbil", "Imc", "Refugees", "Phc"], "27": [3, "Erbil", "Imc", "Refugees", "Phc"], "28": [2, "Erbil", "Imc", "Refugees", "Phc"], "29": [5, "Erbil", "Imc", "Refugees", "Phc"], "31": [2, "Erbil", "Imc", "Refugees", "Phc"], "32": [5, "Erbil", "Imc", "Refugees", "Phc"], "33": [9, "Erbil", "Imc", "Refugees", "Phc"], "35": [4, "Erbil", "Imc", "Refugees", "Phc"], "36": [4, "Erbil", "Imc", "Refugees", "Phc"], "37": [4, "Erbil", "Imc", "Refugees", "Phc"], "38": [5, "Erbil", "Imc", "Refugees", "Phc"], "40": [3, "Erbil", "Imc", "Refugees", "Phc"], "42": [3, "Erbil", "Imc", "Refugees", "Phc"], "49": [2, "Erbil", "Imc", "Refugees", "Phc"], "58": [3, "Erbil", "Doh", "Refugees", "Phc"], "59": [1, "Erbil", "Doh", "Refugees", "Phc"]}, "geometry": {"type": "Point", "coordinates": [43.8119003542573, 36.3453310247561]}}, {"type": "Feature", "properties": {"name": "Mamrashan", "61": [2, "Shikhan", "Heevie", "Idps", "Phc"]}, "geometry": {"type": "Point", "coordinates": [43.4337083333, 36.6707316667]}}, {"type": "Feature", "properties": {"name": "Manathera", "66": [1, "Najaf_Pu", "Pu-Ami", "Idps", "Phc"]}, "geometry": {"type": "Point", "coordinates": [44.44277, 31.935638]}}, {"type": "Feature", "properties": {"name": "Martshmoony", "33": [2, "Ankawa", "Church", "Idps", "Phc"], "36": [2, "Ankawa", "Church", "Idps", "Phc"], "38": [1, "Ankawa", "Church", "Idps", "Phc"], "57": [2, "Ankawa", "Church", "Idps", "Phc"], "60": [2, "Ankawa", "Church", "Idps", "Phc"], "61": [2, "Ankawa", "Church", "Idps", "Phc"], "69": [1, "Ankawa", "Church", "Idps", "Phc"]}, "geometry": {"type": "Point", "coordinates": [43.987, 36.235]}}, {"type": "Feature", "properties": {"name": "Ozal City", "44": [1, "Erbil", "Step-In", "Idps", "Phc"], "45": [4, "Erbil", "Step-In", "Idps", "Phc"]}, "geometry": {"type": "Point", "coordinates": [44.1441783333, 36.2246133333]}}, {"type": "Feature", "properties": {"name": "Qoratu/Banrasayi", "63": [1, "Kalar", "Emergency", "Idps", "Phc"]}, "geometry": {"type": "Point", "coordinates": [45.31243, 34.6182116667]}}, {"type": "Feature", "properties": {"name": "Raniya", "11": [6, "Raniya", "Wvi", "Idps", "Phc"], "14": [2, "Raniya", "Wvi", "Idps", "Phc"]}, "geometry": {"type": "Point", "coordinates": [44.88, 36.25]}}, {"type": "Feature", "properties": {"name": "Rwanga Community", "67": [1, "Zakho", "Malteser", "Idps", "Phc"]}, "geometry": {"type": "Point", "coordinates": [42.6228683333333, 37.0635616666666]}}, {"type": "Feature", "properties": {"name": "Saba Al Bor", "45": [3, "Taji", "Ri", "Idps", "Phc"], "47": [1, "Taji", "Ri", "Idps", "Phc"]}, "geometry": {"type": "Point", "coordinates": [44.15151, 33.459903]}}, {"type": "Feature", "properties": {"name": "Seage", "56": [1, "Zakho", "Imc", "Idps", "Phc"]}, "geometry": {"type": "Point", "coordinates": [42.8795516667, 36.9110783333]}}, {"type": "Feature", "properties": {"name": "Seagy", "39": [1, "Dahuk", "Imc", "Idps", "Phc"]}, "geometry": {"type": "Point", "coordinates": [42.8795516667, 36.9110783333]}}, {"type": "Feature", "properties": {"name": "Shahan City", "16": [1, "Erbil", "Imc", "Idps", "Phc"]}, "geometry": {"type": "Point", "coordinates": [44.3290316667, 36.4025133333]}}, {"type": "Feature", "properties": {"name": "Sharya", "11": [1, "Sumel", "Medair", "Idps", "Phc"], "31": [1, "Sumel", "Medair", "Idps", "Phc"], "33": [2, "Sumel", "Icrc", "Idps", "Phc"], "34": [1, "Sumel", "Icrc", "Idps", "Phc"], "38": [1, "Sumel", "Icrc", "Idps", "Phc"]}, "geometry": {"type": "Point", "coordinates": [42.967528, 36.793444]}}, {"type": "Feature", "properties": {"name": "Shikhan", "14": [1, "Shikhan", "Iom", "Idps", "Phc"], "19": [1, "Shikhan", "Iom", "Idps", "Phc"], "20": [1, "Shikhan", "Iom", "Idps", "Phc"]}, "geometry": {"type": "Point", "coordinates": [43.264287, 36.76067]}}, {"type": "Feature", "properties": {"name": "Tal Adas", "60": [1, "Zummar", "Heevie", "Idps", "Phc"]}, "geometry": {"type": "Point", "coordinates": [42.992785, 36.61699]}}, {"type": "Feature", "properties": {"name": "Tazar De", "58": [1, "Tazar De", "Emergency", "Idps", "Phc"], "59": [2, "Tazar De", "Emergency", "Idps", "Phc"]}, "geometry": {"type": "Point", "coordinates": [45.45034, 34.706155]}}, {"type": "Feature", "properties": {"name": "Ya Hussien1", "66": [1, "Najaf_Pu", "Pu-Ami", "Idps", "Phc"], "67": [1, "Najaf_Pu", "Pu-Ami", "Idps", "Phc"]}, "geometry": {"type": "Point", "coordinates": [44.32639, 32.13971]}}, {"type": "Feature", "properties": {"name": "Yahyawa", "44": [2, "Kirkuk", "Iom", "Idps", "Phc"]}, "geometry": {"type": "Point", "coordinates": [44.4941966667, 35.3266966667]}}, {"type": "Feature", "properties": {"name": "Zawita", "3": [1, "Sumel", "Pu-Ami", "Idps", "Phc"], "23": [1, "Sumel", "Icrc", "Idps", "Phc"]}, "geometry": {"type": "Point", "coordinates": [43.12, 36.9]}}, {"type": "Feature", "properties": {"name": "Zummar", "21": [1, "Zummar", "Msf-F", "Idps", "Phc"]}, "geometry": {"type": "Point", "coordinates": [42.5953766667, 36.65303]}}]}