{"type": "FeatureCollection","crs":                     {"type": "name", "properties": { "name":                     "urn:ogc:def:crs:OGC:1.3:CRS84" } },"features": [{"type": "Feature", "properties": {"name": "Abaiji", "total": 136}, "geometry": {"type": "Point", "coordinates": [44.376268, 33.769104]}}, {"type": "Feature", "properties": {"name": "Abu_Ghraib", "total": 664}, "geometry": {"type": "Point", "coordinates": [44.082918, 33.29612]}}, {"type": "Feature", "properties": {"name": "Aiden  New Alyawa", "total": 732}, "geometry": {"type": "Point", "coordinates": [44.6130416667, 33.7161183333]}}, {"type": "Feature", "properties": {"name": "Al Bakriya", "total": 70}, "geometry": {"type": "Point", "coordinates": [44.2571733333, 33.3204583333]}}, {"type": "Feature", "properties": {"name": "Al Hussain Medical City", "total": 380}, "geometry": {"type": "Point", "coordinates": [44.0327316667, 32.6070233333]}}, {"type": "Feature", "properties": {"name": "Al-Ahel", "total": 1043}, "geometry": {"type": "Point", "coordinates": [44.083895, 33.283734]}}, {"type": "Feature", "properties": {"name": "Al-Amal", "total": 8236}, "geometry": {"type": "Point", "coordinates": [42.25, 32.03]}}, {"type": "Feature", "properties": {"name": "Al-Amal Al-Manshud", "total": 2413}, "geometry": {"type": "Point", "coordinates": [44.034211, 33.307281]}}, {"type": "Feature", "properties": {"name": "Al-Batar", "total": 44}, "geometry": {"type": "Point", "coordinates": [45.7161566667, 32.5518166667]}}, {"type": "Feature", "properties": {"name": "Al-Mahdi", "total": 4}, "geometry": {"type": "Point", "coordinates": [45.2400633333, 31.3238933333]}}, {"type": "Feature", "properties": {"name": "Al-Nabi Younis", "total": 36}, "geometry": {"type": "Point", "coordinates": [44.643067, 33.344709]}}, {"type": "Feature", "properties": {"name": "Al-Nedaa Mosque", "total": 306}, "geometry": {"type": "Point", "coordinates": [44.384234, 33.37447]}}, {"type": "Feature", "properties": {"name": "Al-Obaidi", "total": 2659}, "geometry": {"type": "Point", "coordinates": [41.219072, 34.417309]}}, {"type": "Feature", "properties": {"name": "Al-Salam", "total": 19787}, "geometry": {"type": "Point", "coordinates": [43.85, 33.16]}}, {"type": "Feature", "properties": {"name": "Al-Wand 1", "total": 590}, "geometry": {"type": "Point", "coordinates": [44.6126683333, 33.7161783333]}}, {"type": "Feature", "properties": {"name": "Alaskan", "total": 114}, "geometry": {"type": "Point", "coordinates": [44.9220183333, 31.99781]}}, {"type": "Feature", "properties": {"name": "Aliawa", "total": 873}, "geometry": {"type": "Point", "coordinates": [45.326362, 34.342164]}}, {"type": "Feature", "properties": {"name": "Aljanib Alsageer", "total": 46}, "geometry": {"type": "Point", "coordinates": [44.0323516667, 32.6067416667]}}, {"type": "Feature", "properties": {"name": "All Shohadaa Complex", "total": 265}, "geometry": {"type": "Point", "coordinates": [47.02127, 30.9715216667]}}, {"type": "Feature", "properties": {"name": "Allai", "total": 122}, "geometry": {"type": "Point", "coordinates": [45.17624, 35.58074]}}, {"type": "Feature", "properties": {"name": "Alscak", "total": 5}, "geometry": {"type": "Point", "coordinates": [45.2719416667, 31.339005]}}, {"type": "Feature", "properties": {"name": "Ankawa-Mall", "total": 1911}, "geometry": {"type": "Point", "coordinates": [43.99, 36.22]}}, {"type": "Feature", "properties": {"name": "Arbat Idp", "total": 28113}, "geometry": {"type": "Point", "coordinates": [45.590574, 35.4344959]}}, {"type": "Feature", "properties": {"name": "Arbat Refugee", "total": 16937}, "geometry": {"type": "Point", "coordinates": [45.59069, 35.43057]}}, {"type": "Feature", "properties": {"name": "Ashti", "total": 3516}, "geometry": {"type": "Point", "coordinates": [45.58862, 35.422128]}}, {"type": "Feature", "properties": {"name": "Awen Eshar", "total": 2607}, "geometry": {"type": "Point", "coordinates": [44.07536, 36.1157]}}, {"type": "Feature", "properties": {"name": "Babil Hotel", "total": 806}, "geometry": {"type": "Point", "coordinates": [44.4350483333, 32.5156083333]}}, {"type": "Feature", "properties": {"name": "Baharka", "total": 18302}, "geometry": {"type": "Point", "coordinates": [44.03, 36.31]}}, {"type": "Feature", "properties": {"name": "Bajit Kandala", "total": 30061}, "geometry": {"type": "Point", "coordinates": [42.4409, 37.0535]}}, {"type": "Feature", "properties": {"name": "Bajit Kandala2", "total": 2335}, "geometry": {"type": "Point", "coordinates": [42.4409, 37.0535]}}, {"type": "Feature", "properties": {"name": "Bardarash", "total": 22542}, "geometry": {"type": "Point", "coordinates": [43.56717, 36.49315]}}, {"type": "Feature", "properties": {"name": "Barika", "total": 1284}, "geometry": {"type": "Point", "coordinates": [45.44, 35.56]}}, {"type": "Feature", "properties": {"name": "Bariz City", "total": 462}, "geometry": {"type": "Point", "coordinates": [45.44, 35.56]}}, {"type": "Feature", "properties": {"name": "Bashair", "total": 25}, "geometry": {"type": "Point", "coordinates": [46.24121, 31.0636466667]}}, {"type": "Feature", "properties": {"name": "Basirma", "total": 18807}, "geometry": {"type": "Point", "coordinates": [44.3667, 36.4833]}}, {"type": "Feature", "properties": {"name": "Basrah 5Miles", "total": 1155}, "geometry": {"type": "Point", "coordinates": [47.7596, 30.5497683333]}}, {"type": "Feature", "properties": {"name": "Berseve 2", "total": 9713}, "geometry": {"type": "Point", "coordinates": [42.85398, 37.1798]}}, {"type": "Feature", "properties": {"name": "Brazilian", "total": 1838}, "geometry": {"type": "Point", "coordinates": [44.03, 36.31]}}, {"type": "Feature", "properties": {"name": "Bzsbiz", "total": 36}, "geometry": {"type": "Point", "coordinates": [44.035353, 33.139835]}}, {"type": "Feature", "properties": {"name": "Caravanat Al Zurgan", "total": 29}, "geometry": {"type": "Point", "coordinates": [45.7161266667, 32.551865]}}, {"type": "Feature", "properties": {"name": "Chamchamal", "total": 3866}, "geometry": {"type": "Point", "coordinates": [44.8283983333, 35.5183683333]}}, {"type": "Feature", "properties": {"name": "Chamishku", "total": 14828}, "geometry": {"type": "Point", "coordinates": [42.668, 37.178]}}, {"type": "Feature", "properties": {"name": "Dahuk", "total": 3201}, "geometry": {"type": "Point", "coordinates": [42.949419, 36.864712]}}, {"type": "Feature", "properties": {"name": "Darashakran", "total": 36198}, "geometry": {"type": "Point", "coordinates": [43.893692, 36.46948]}}, {"type": "Feature", "properties": {"name": "Dawodia", "total": 9408}, "geometry": {"type": "Point", "coordinates": [43.222998, 37.089891]}}, {"type": "Feature", "properties": {"name": "Debaga", "total": 7076}, "geometry": {"type": "Point", "coordinates": [43.9940783333, 36.2194683333]}}, {"type": "Feature", "properties": {"name": "Dokan", "total": 4789}, "geometry": {"type": "Point", "coordinates": [45.44, 35.56]}}, {"type": "Feature", "properties": {"name": "Domiz", "total": 18181}, "geometry": {"type": "Point", "coordinates": [42.900624, 36.788012]}}, {"type": "Feature", "properties": {"name": "Domiz2", "total": 4367}, "geometry": {"type": "Point", "coordinates": [42.900624, 36.788012]}}, {"type": "Feature", "properties": {"name": "Ekram Zobaa", "total": 319}, "geometry": {"type": "Point", "coordinates": [43.953276, 33.22936]}}, {"type": "Feature", "properties": {"name": "Erbil", "total": 532}, "geometry": {"type": "Point", "coordinates": [44.0, 36.19]}}, {"type": "Feature", "properties": {"name": "Erbil Center", "total": 1650}, "geometry": {"type": "Point", "coordinates": [44.0, 36.19]}}, {"type": "Feature", "properties": {"name": "Esiyan", "total": 623}, "geometry": {"type": "Point", "coordinates": [43.26904, 36.72461]}}, {"type": "Feature", "properties": {"name": "Eyes Of Missan", "total": 432}, "geometry": {"type": "Point", "coordinates": [47.117555, 31.8490766667]}}, {"type": "Feature", "properties": {"name": "Garmawa", "total": 923}, "geometry": {"type": "Point", "coordinates": [43.237, 36.646885]}}, {"type": "Feature", "properties": {"name": "Gawilan", "total": 18445}, "geometry": {"type": "Point", "coordinates": [43.61581064, 36.33849565]}}, {"type": "Feature", "properties": {"name": "Group In  V. Alhadi", "total": 2}, "geometry": {"type": "Point", "coordinates": [45.3162816667, 31.2573566667]}}, {"type": "Feature", "properties": {"name": "Guss Swalem", "total": 1010}, "geometry": {"type": "Point", "coordinates": [44.403805, 32.4185216667]}}, {"type": "Feature", "properties": {"name": "Habeeb Almalih Hc", "total": 1579}, "geometry": {"type": "Point", "coordinates": [44.0110733333, 36.2319566667]}}, {"type": "Feature", "properties": {"name": "Harsham", "total": 8052}, "geometry": {"type": "Point", "coordinates": [43.994913, 36.256285]}}, {"type": "Feature", "properties": {"name": "Hay Alwasiti", "total": 181}, "geometry": {"type": "Point", "coordinates": [44.348578, 35.420021]}}, {"type": "Feature", "properties": {"name": "Hay Asraa", "total": 614}, "geometry": {"type": "Point", "coordinates": [44.402439, 35.429539]}}, {"type": "Feature", "properties": {"name": "Hevi", "total": 468}, "geometry": {"type": "Point", "coordinates": [43.00589, 36.850119]}}, {"type": "Feature", "properties": {"name": "Huzairan", "total": 231}, "geometry": {"type": "Point", "coordinates": [44.342891, 35.409465]}}, {"type": "Feature", "properties": {"name": "Iraq_Tent\n", "total": 791}, "geometry": {"type": "Point", "coordinates": [44.3564116667, 33.12995]}}, {"type": "Feature", "properties": {"name": "Kabarto 2", "total": 17795}, "geometry": {"type": "Point", "coordinates": [42.8584683333, 36.78845]}}, {"type": "Feature", "properties": {"name": "Kalak", "total": 524}, "geometry": {"type": "Point", "coordinates": [43.673424, 36.272136]}}, {"type": "Feature", "properties": {"name": "Kasnazan", "total": 223}, "geometry": {"type": "Point", "coordinates": [44.13, 36.2]}}, {"type": "Feature", "properties": {"name": "Khanke", "total": 2723}, "geometry": {"type": "Point", "coordinates": [42.7709883333, 36.7831166667]}}, {"type": "Feature", "properties": {"name": "Kowergosek", "total": 34055}, "geometry": {"type": "Point", "coordinates": [43.8112815, 36.3460809]}}, {"type": "Feature", "properties": {"name": "Kumait Cente", "total": 201}, "geometry": {"type": "Point", "coordinates": [46.8829733333, 32.031695]}}, {"type": "Feature", "properties": {"name": "Laylan", "total": 63}, "geometry": {"type": "Point", "coordinates": [45.38222, 35.5795583333]}}, {"type": "Feature", "properties": {"name": "Ma Baina Al Harameen", "total": 145}, "geometry": {"type": "Point", "coordinates": [44.3131433333, 32.176755]}}, {"type": "Feature", "properties": {"name": "Mamilian", "total": 9059}, "geometry": {"type": "Point", "coordinates": [42.9640166667, 36.8715366667]}}, {"type": "Feature", "properties": {"name": "Mamzawa", "total": 1242}, "geometry": {"type": "Point", "coordinates": [43.96, 36.11]}}, {"type": "Feature", "properties": {"name": "Mangesh\n", "total": 972}, "geometry": {"type": "Point", "coordinates": [43.016503, 36.855727]}}, {"type": "Feature", "properties": {"name": "Mart Shmoni _Kasnazan", "total": 6280}, "geometry": {"type": "Point", "coordinates": [44.13, 36.2]}}, {"type": "Feature", "properties": {"name": "Martshmoony", "total": 25218}, "geometry": {"type": "Point", "coordinates": [43.987, 36.235]}}, {"type": "Feature", "properties": {"name": "Modern Village", "total": 83}, "geometry": {"type": "Point", "coordinates": [44.9179566667, 31.9878833333]}}, {"type": "Feature", "properties": {"name": "Mokb", "total": 30}, "geometry": {"type": "Point", "coordinates": [44.922185, 31.997605]}}, {"type": "Feature", "properties": {"name": "Mosquest And Modernvillage", "total": 79}, "geometry": {"type": "Point", "coordinates": [44.98245, 31.7175883333]}}, {"type": "Feature", "properties": {"name": "Piramagroon", "total": 4713}, "geometry": {"type": "Point", "coordinates": [45.146705, 35.7328933333]}}, {"type": "Feature", "properties": {"name": "Qaladiza", "total": 1271}, "geometry": {"type": "Point", "coordinates": [45.127778, 36.183333]}}, {"type": "Feature", "properties": {"name": "Qalat Salih", "total": 1}, "geometry": {"type": "Point", "coordinates": [47.284695, 31.631981]}}, {"type": "Feature", "properties": {"name": "Qoratu", "total": 7329}, "geometry": {"type": "Point", "coordinates": [45.28, 34.63]}}, {"type": "Feature", "properties": {"name": "Qushtapa", "total": 15295}, "geometry": {"type": "Point", "coordinates": [43.98089111, 36.019313]}}, {"type": "Feature", "properties": {"name": "Raberin", "total": 356}, "geometry": {"type": "Point", "coordinates": [45.24527778, 34.65944444]}}, {"type": "Feature", "properties": {"name": "Raniya", "total": 6513}, "geometry": {"type": "Point", "coordinates": [45.44, 35.56]}}, {"type": "Feature", "properties": {"name": "Saad", "total": 397}, "geometry": {"type": "Point", "coordinates": [44.6127366667, 33.716135]}}, {"type": "Feature", "properties": {"name": "Said Alshuhdaa", "total": 430}, "geometry": {"type": "Point", "coordinates": [44.3249583333, 32.1200216667]}}, {"type": "Feature", "properties": {"name": "Salah-Aga", "total": 215}, "geometry": {"type": "Point", "coordinates": [45.28, 34.63]}}, {"type": "Feature", "properties": {"name": "Says City", "total": 450}, "geometry": {"type": "Point", "coordinates": [45.68, 35.11]}}, {"type": "Feature", "properties": {"name": "Seage", "total": 3893}, "geometry": {"type": "Point", "coordinates": [42.8863416667, 36.91248]}}, {"type": "Feature", "properties": {"name": "Seberden", "total": 1566}, "geometry": {"type": "Point", "coordinates": [44.1002, 36.2039]}}, {"type": "Feature", "properties": {"name": "Shahan City", "total": 7668}, "geometry": {"type": "Point", "coordinates": [44.0, 36.19]}}, {"type": "Feature", "properties": {"name": "Shaqlawa", "total": 3979}, "geometry": {"type": "Point", "coordinates": [44.33, 36.39]}}, {"type": "Feature", "properties": {"name": "Sharya", "total": 69571}, "geometry": {"type": "Point", "coordinates": [42.96181, 36.79687]}}, {"type": "Feature", "properties": {"name": "Shawees", "total": 916}, "geometry": {"type": "Point", "coordinates": [44.08, 36.24]}}, {"type": "Feature", "properties": {"name": "Shikhan", "total": 12232}, "geometry": {"type": "Point", "coordinates": [43.26904, 36.72461]}}, {"type": "Feature", "properties": {"name": "Silo Road", "total": 22}, "geometry": {"type": "Point", "coordinates": [44.908741, 31.927306]}}, {"type": "Feature", "properties": {"name": "Sitak", "total": 633}, "geometry": {"type": "Point", "coordinates": [45.44, 35.56]}}, {"type": "Feature", "properties": {"name": "Sulaymaniyah", "total": 2590}, "geometry": {"type": "Point", "coordinates": [45.44, 35.56]}}, {"type": "Feature", "properties": {"name": "Sulaymaniyah Center", "total": 1038}, "geometry": {"type": "Point", "coordinates": [45.44, 35.56]}}, {"type": "Feature", "properties": {"name": "Takya", "total": 686}, "geometry": {"type": "Point", "coordinates": [44.3691483333, 33.2256666667]}}, {"type": "Feature", "properties": {"name": "Tanjaro", "total": 222}, "geometry": {"type": "Point", "coordinates": [45.592762, 35.42836]}}, {"type": "Feature", "properties": {"name": "Tazar De", "total": 3650}, "geometry": {"type": "Point", "coordinates": [45.44898, 34.70576]}}, {"type": "Feature", "properties": {"name": "Topaskar", "total": 179}, "geometry": {"type": "Point", "coordinates": [45.28, 34.63]}}, {"type": "Feature", "properties": {"name": "Um _Baneen", "total": 2203}, "geometry": {"type": "Point", "coordinates": [44.0323666667, 32.6068866667]}}, {"type": "Feature", "properties": {"name": "Wana", "total": 10333}, "geometry": {"type": "Point", "coordinates": [42.84, 36.85]}}, {"type": "Feature", "properties": {"name": "Yahyawa", "total": 1971}, "geometry": {"type": "Point", "coordinates": [44.4941966667, 35.3266966667]}}, {"type": "Feature", "properties": {"name": "Zawita", "total": 6465}, "geometry": {"type": "Point", "coordinates": [43.12, 36.9]}}, {"type": "Feature", "properties": {"name": "Zaytona", "total": 7086}, "geometry": {"type": "Point", "coordinates": [44.0709, 36.1417]}}, {"type": "Feature", "properties": {"name": "Zeren City", "total": 230}, "geometry": {"type": "Point", "coordinates": [44.0381, 36.2791]}}, {"type": "Feature", "properties": {"name": "Zubydia", "total": 38}, "geometry": {"type": "Point", "coordinates": [45.1595183333, 32.77424]}}, {"type": "Feature", "properties": {"name": "Zummar", "total": 9343}, "geometry": {"type": "Point", "coordinates": [42.63, 36.76]}}]}