{"type": "FeatureCollection","crs":                     {"type": "name", "properties": { "name":                     "urn:ogc:def:crs:OGC:1.3:CRS84" } },"features": [{"type": "Feature", "properties": {"name": "1St-Of-June", "total": 725}, "geometry": {"type": "Point", "coordinates": [44.33904, 35.402307]}}, {"type": "Feature", "properties": {"name": "Abu-Wajna", "total": 6415}, "geometry": {"type": "Point", "coordinates": [42.624142, 36.692167]}}, {"type": "Feature", "properties": {"name": "Abu_Ghraib", "total": 6031}, "geometry": {"type": "Point", "coordinates": [44.082918, 33.29612]}}, {"type": "Feature", "properties": {"name": "Afak Road Houses", "total": 274}, "geometry": {"type": "Point", "coordinates": [44.886024, 31.971957]}}, {"type": "Feature", "properties": {"name": "Aiden  New Alyawa", "total": 732}, "geometry": {"type": "Point", "coordinates": [44.6130416667, 33.7161183333]}}, {"type": "Feature", "properties": {"name": "Al Aamah", "total": 5}, "geometry": {"type": "Point", "coordinates": [45.292035, 31.3258366667]}}, {"type": "Feature", "properties": {"name": "Al Bakriya", "total": 1336}, "geometry": {"type": "Point", "coordinates": [44.2571733333, 33.3204583333]}}, {"type": "Feature", "properties": {"name": "Al Batraa", "total": 11139}, "geometry": {"type": "Point", "coordinates": [44.012341, 33.131705]}}, {"type": "Feature", "properties": {"name": "Al Hadi", "total": 1}, "geometry": {"type": "Point", "coordinates": [45.316265, 31.2580516666666]}}, {"type": "Feature", "properties": {"name": "Al Hassenin", "total": 4}, "geometry": {"type": "Point", "coordinates": [45.2646316666666, 31.3185483333333]}}, {"type": "Feature", "properties": {"name": "Al Hussain Medical City", "total": 380}, "geometry": {"type": "Point", "coordinates": [44.0327316667, 32.6070233333]}}, {"type": "Feature", "properties": {"name": "Al Jazronai", "total": 312}, "geometry": {"type": "Point", "coordinates": [42.4270616666666, 36.8979483333333]}}, {"type": "Feature", "properties": {"name": "Al Khalidia", "total": 4444}, "geometry": {"type": "Point", "coordinates": [43.3815166666666, 33.42813]}}, {"type": "Feature", "properties": {"name": "Al Mumi", "total": 479}, "geometry": {"type": "Point", "coordinates": [42.0479783333, 36.6263816667]}}, {"type": "Feature", "properties": {"name": "Al Nkals", "total": 4}, "geometry": {"type": "Point", "coordinates": [45.429245, 31.328565]}}, {"type": "Feature", "properties": {"name": "Al Sabia", "total": 5}, "geometry": {"type": "Point", "coordinates": [45.5406966667, 31.202415]}}, {"type": "Feature", "properties": {"name": "Al Shaabi", "total": 2763}, "geometry": {"type": "Point", "coordinates": [44.334775, 35.500745]}}, {"type": "Feature", "properties": {"name": "Al Swer", "total": 8}, "geometry": {"type": "Point", "coordinates": [45.4837383333, 31.3098283333]}}, {"type": "Feature", "properties": {"name": "Al- Amal Al -Manshood", "total": 12945}, "geometry": {"type": "Point", "coordinates": [43.8538116666666, 33.14711]}}, {"type": "Feature", "properties": {"name": "Al-Abadi", "total": 1522}, "geometry": {"type": "Point", "coordinates": [44.44, 35.13]}}, {"type": "Feature", "properties": {"name": "Al-Abayechi", "total": 136}, "geometry": {"type": "Point", "coordinates": [44.390423, 33.661975]}}, {"type": "Feature", "properties": {"name": "Al-Abyad", "total": 11737}, "geometry": {"type": "Point", "coordinates": [44.022146, 33.14047]}}, {"type": "Feature", "properties": {"name": "Al-Ahell", "total": 1602}, "geometry": {"type": "Point", "coordinates": [44.083895, 33.283734]}}, {"type": "Feature", "properties": {"name": "Al-Alam", "total": 1242}, "geometry": {"type": "Point", "coordinates": [43.701102, 34.710135]}}, {"type": "Feature", "properties": {"name": "Al-Amal", "total": 17910}, "geometry": {"type": "Point", "coordinates": [42.25, 32.03]}}, {"type": "Feature", "properties": {"name": "Al-Amal Al-Manshud", "total": 3154}, "geometry": {"type": "Point", "coordinates": [44.034211, 33.307281]}}, {"type": "Feature", "properties": {"name": "Al-Amal1", "total": 7778}, "geometry": {"type": "Point", "coordinates": [42.25, 32.03]}}, {"type": "Feature", "properties": {"name": "Al-Asfar", "total": 14278}, "geometry": {"type": "Point", "coordinates": [44.0150683333333, 33.14597]}}, {"type": "Feature", "properties": {"name": "Al-Asfar1", "total": 6153}, "geometry": {"type": "Point", "coordinates": [44.0144583333, 33.1466683333]}}, {"type": "Feature", "properties": {"name": "Al-Habanyia", "total": 9790}, "geometry": {"type": "Point", "coordinates": [43.571611, 33.2448]}}, {"type": "Feature", "properties": {"name": "Al-Habanyia1", "total": 8902}, "geometry": {"type": "Point", "coordinates": [43.571611, 33.2448]}}, {"type": "Feature", "properties": {"name": "Al-Habanyia2", "total": 9012}, "geometry": {"type": "Point", "coordinates": [43.571611, 33.2448]}}, {"type": "Feature", "properties": {"name": "Al-Mahdi", "total": 9}, "geometry": {"type": "Point", "coordinates": [45.2400633333, 31.3238933333]}}, {"type": "Feature", "properties": {"name": "Al-Malha", "total": 271}, "geometry": {"type": "Point", "coordinates": [44.100683, 35.691301]}}, {"type": "Feature", "properties": {"name": "Al-Mawqee Al-Askary", "total": 124}, "geometry": {"type": "Point", "coordinates": [44.922727, 31.980004]}}, {"type": "Feature", "properties": {"name": "Al-Momi", "total": 122}, "geometry": {"type": "Point", "coordinates": [42.0481533333, 36.6260866667]}}, {"type": "Feature", "properties": {"name": "Al-Nabi Younis", "total": 83}, "geometry": {"type": "Point", "coordinates": [44.6632283333333, 33.3628566666666]}}, {"type": "Feature", "properties": {"name": "Al-Nasr Wa Al-Salam", "total": 321}, "geometry": {"type": "Point", "coordinates": [44.029029, 33.309256]}}, {"type": "Feature", "properties": {"name": "Al-Nedaa Mosque", "total": 572}, "geometry": {"type": "Point", "coordinates": [44.311956, 33.360331]}}, {"type": "Feature", "properties": {"name": "Al-Numanyiah", "total": 80}, "geometry": {"type": "Point", "coordinates": [45.417415, 32.55282]}}, {"type": "Feature", "properties": {"name": "Al-Obaidi", "total": 3224}, "geometry": {"type": "Point", "coordinates": [41.219072, 34.417309]}}, {"type": "Feature", "properties": {"name": "Al-Rahalyia", "total": 3517}, "geometry": {"type": "Point", "coordinates": [43.38848, 32.765046]}}, {"type": "Feature", "properties": {"name": "Al-Rahma", "total": 12005}, "geometry": {"type": "Point", "coordinates": [43.755635, 34.405591]}}, {"type": "Feature", "properties": {"name": "Al-Rasala", "total": 314}, "geometry": {"type": "Point", "coordinates": [44.100972, 33.306747]}}, {"type": "Feature", "properties": {"name": "Al-Sadia", "total": 48}, "geometry": {"type": "Point", "coordinates": [44.348245, 33.253957]}}, {"type": "Feature", "properties": {"name": "Al-Salam", "total": 70793}, "geometry": {"type": "Point", "coordinates": [43.85, 33.16]}}, {"type": "Feature", "properties": {"name": "Al-Taawn", "total": 11200}, "geometry": {"type": "Point", "coordinates": [44.065528, 34.076353]}}, {"type": "Feature", "properties": {"name": "Al-Wand 1", "total": 590}, "geometry": {"type": "Point", "coordinates": [45.381052, 34.365659]}}, {"type": "Feature", "properties": {"name": "Alameria", "total": 400}, "geometry": {"type": "Point", "coordinates": [43.8482833333333, 33.1486833333333]}}, {"type": "Feature", "properties": {"name": "Alaskan", "total": 1748}, "geometry": {"type": "Point", "coordinates": [44.9759133333, 31.9809466667]}}, {"type": "Feature", "properties": {"name": "Albatar & Caravanat Alzurgan", "total": 591}, "geometry": {"type": "Point", "coordinates": [45.7161566667, 32.5518166667]}}, {"type": "Feature", "properties": {"name": "Alhassan Alaskeri", "total": 1}, "geometry": {"type": "Point", "coordinates": [45.2678999999999, 31.3058466666666]}}, {"type": "Feature", "properties": {"name": "Ali Abar", "total": 1062}, "geometry": {"type": "Point", "coordinates": [42.3309233333, 36.9270016667]}}, {"type": "Feature", "properties": {"name": "Aliawa", "total": 873}, "geometry": {"type": "Point", "coordinates": [45.326362, 34.342164]}}, {"type": "Feature", "properties": {"name": "Aliyouka", "total": 1890}, "geometry": {"type": "Point", "coordinates": [42.247435, 36.92368]}}, {"type": "Feature", "properties": {"name": "Alkarma Complex", "total": 267}, "geometry": {"type": "Point", "coordinates": [43.9880133333333, 36.234185]}}, {"type": "Feature", "properties": {"name": "All Abady", "total": 294}, "geometry": {"type": "Point", "coordinates": [44.3588616667, 35.2808866667]}}, {"type": "Feature", "properties": {"name": "All Janib Alsageer", "total": 207}, "geometry": {"type": "Point", "coordinates": [44.0323516667, 32.6067416667]}}, {"type": "Feature", "properties": {"name": "All Mohanaweia And All Salaheias Mawakeb", "total": 25}, "geometry": {"type": "Point", "coordinates": [44.934263, 32.1424]}}, {"type": "Feature", "properties": {"name": "All Warki Alnmothji", "total": 9}, "geometry": {"type": "Point", "coordinates": [45.3610733333, 31.4558216667]}}, {"type": "Feature", "properties": {"name": "Allai", "total": 122}, "geometry": {"type": "Point", "coordinates": [45.17624, 35.58074]}}, {"type": "Feature", "properties": {"name": "Alqosh", "total": 16057}, "geometry": {"type": "Point", "coordinates": [43.098872, 36.736717]}}, {"type": "Feature", "properties": {"name": "Alscak", "total": 5}, "geometry": {"type": "Point", "coordinates": [45.2719416667, 31.339005]}}, {"type": "Feature", "properties": {"name": "Alshohadaa_Complxe", "total": 841}, "geometry": {"type": "Point", "coordinates": [47.02127, 30.9715216667]}}, {"type": "Feature", "properties": {"name": "Alzahra", "total": 12}, "geometry": {"type": "Point", "coordinates": [45.2121233333333, 31.522955]}}, {"type": "Feature", "properties": {"name": "Amerli", "total": 209}, "geometry": {"type": "Point", "coordinates": [44.586425, 34.725706]}}, {"type": "Feature", "properties": {"name": "Amriate_Alfallujah", "total": 1526}, "geometry": {"type": "Point", "coordinates": [43.864516, 33.167523]}}, {"type": "Feature", "properties": {"name": "Amriate_Alfallujah1", "total": 3275}, "geometry": {"type": "Point", "coordinates": [43.864516, 33.167523]}}, {"type": "Feature", "properties": {"name": "Amriate_Alfallujah2", "total": 4046}, "geometry": {"type": "Point", "coordinates": [43.864516, 33.167523]}}, {"type": "Feature", "properties": {"name": "Amriate_Alfallujah3", "total": 3722}, "geometry": {"type": "Point", "coordinates": [43.864516, 33.167523]}}, {"type": "Feature", "properties": {"name": "Anglican_Church", "total": 275}, "geometry": {"type": "Point", "coordinates": [43.9880133333333, 36.234185]}}, {"type": "Feature", "properties": {"name": "Ankawa-Mall", "total": 1911}, "geometry": {"type": "Point", "coordinates": [43.991834, 36.237448]}}, {"type": "Feature", "properties": {"name": "Arbat", "total": 468}, "geometry": {"type": "Point", "coordinates": [45.590574, 35.4344959]}}, {"type": "Feature", "properties": {"name": "Arbat Idp", "total": 37814}, "geometry": {"type": "Point", "coordinates": [45.590574, 35.4344959]}}, {"type": "Feature", "properties": {"name": "Arbat Refugee", "total": 25855}, "geometry": {"type": "Point", "coordinates": [45.59069, 35.43057]}}, {"type": "Feature", "properties": {"name": "Ashti", "total": 17021}, "geometry": {"type": "Point", "coordinates": [45.5886199999999, 35.422128]}}, {"type": "Feature", "properties": {"name": "Awen Eshar", "total": 2607}, "geometry": {"type": "Point", "coordinates": [44.070651, 36.140377]}}, {"type": "Feature", "properties": {"name": "Babil Hotel", "total": 2150}, "geometry": {"type": "Point", "coordinates": [44.4350483333, 32.5156083333]}}, {"type": "Feature", "properties": {"name": "Badawa", "total": 2321}, "geometry": {"type": "Point", "coordinates": [44.6110683333333, 35.2433716666666]}}, {"type": "Feature", "properties": {"name": "Baharka", "total": 29319}, "geometry": {"type": "Point", "coordinates": [43.990685, 36.295355]}}, {"type": "Feature", "properties": {"name": "Bajit Kandala", "total": 47401}, "geometry": {"type": "Point", "coordinates": [42.4409, 37.0535]}}, {"type": "Feature", "properties": {"name": "Bajit Kandala2", "total": 2335}, "geometry": {"type": "Point", "coordinates": [42.4409, 37.0535]}}, {"type": "Feature", "properties": {"name": "Bajwan", "total": 2210}, "geometry": {"type": "Point", "coordinates": [44.28012, 35.543005]}}, {"type": "Feature", "properties": {"name": "Balad", "total": 14240}, "geometry": {"type": "Point", "coordinates": [44.150284, 34.01097]}}, {"type": "Feature", "properties": {"name": "Baraam Al Wazeriya", "total": 18}, "geometry": {"type": "Point", "coordinates": [44.382445, 33.365288]}}, {"type": "Feature", "properties": {"name": "Baram Alwazeria", "total": 14}, "geometry": {"type": "Point", "coordinates": [44.382925, 33.373926]}}, {"type": "Feature", "properties": {"name": "Bardarash", "total": 38030}, "geometry": {"type": "Point", "coordinates": [43.56717, 36.49315]}}, {"type": "Feature", "properties": {"name": "Bardiya", "total": 1501}, "geometry": {"type": "Point", "coordinates": [42.9478166666666, 36.8702]}}, {"type": "Feature", "properties": {"name": "Barika", "total": 2614}, "geometry": {"type": "Point", "coordinates": [45.44, 35.56]}}, {"type": "Feature", "properties": {"name": "Bariz City", "total": 462}, "geometry": {"type": "Point", "coordinates": [45.34055, 35.59222]}}, {"type": "Feature", "properties": {"name": "Barzinja", "total": 1567}, "geometry": {"type": "Point", "coordinates": [45.6879716666666, 35.5286916666666]}}, {"type": "Feature", "properties": {"name": "Bashair", "total": 30}, "geometry": {"type": "Point", "coordinates": [46.24121, 31.0636466667]}}, {"type": "Feature", "properties": {"name": "Basirma", "total": 30636}, "geometry": {"type": "Point", "coordinates": [44.3409937848482, 36.4966868474105]}}, {"type": "Feature", "properties": {"name": "Basrah 5Miles", "total": 3171}, "geometry": {"type": "Point", "coordinates": [47.7596, 30.5497683333]}}, {"type": "Feature", "properties": {"name": "Bazian", "total": 887}, "geometry": {"type": "Point", "coordinates": [45.15723, 35.58311]}}, {"type": "Feature", "properties": {"name": "Berseve 1", "total": 2108}, "geometry": {"type": "Point", "coordinates": [42.8588366666666, 37.1806283333333]}}, {"type": "Feature", "properties": {"name": "Berseve 2", "total": 24919}, "geometry": {"type": "Point", "coordinates": [42.8642116666666, 37.1826833333333]}}, {"type": "Feature", "properties": {"name": "Bijeel", "total": 143}, "geometry": {"type": "Point", "coordinates": [44.01866, 36.72379]}}, {"type": "Feature", "properties": {"name": "Boark", "total": 297}, "geometry": {"type": "Point", "coordinates": [42.85682, 36.792585]}}, {"type": "Feature", "properties": {"name": "Brazilian", "total": 3639}, "geometry": {"type": "Point", "coordinates": [44.0095016667, 36.24677]}}, {"type": "Feature", "properties": {"name": "Bzsbiz", "total": 36}, "geometry": {"type": "Point", "coordinates": [43.865164, 33.174731]}}, {"type": "Feature", "properties": {"name": "Chamchamal", "total": 13096}, "geometry": {"type": "Point", "coordinates": [44.8098516667, 35.5265483333]}}, {"type": "Feature", "properties": {"name": "Chamishku", "total": 27761}, "geometry": {"type": "Point", "coordinates": [42.6661833765872, 37.1750312588697]}}, {"type": "Feature", "properties": {"name": "Che Khire", "total": 884}, "geometry": {"type": "Point", "coordinates": [42.34492, 36.9798416666666]}}, {"type": "Feature", "properties": {"name": "Dahuk", "total": 6696}, "geometry": {"type": "Point", "coordinates": [42.949419, 36.864712]}}, {"type": "Feature", "properties": {"name": "Darashakran", "total": 62921}, "geometry": {"type": "Point", "coordinates": [43.8925916666666, 36.4737699999999]}}, {"type": "Feature", "properties": {"name": "Dary Clinic", "total": 1828}, "geometry": {"type": "Point", "coordinates": [44.398626, 33.32276]}}, {"type": "Feature", "properties": {"name": "Dawanesh", "total": 354}, "geometry": {"type": "Point", "coordinates": [42.855292, 36.504894]}}, {"type": "Feature", "properties": {"name": "Dawodia", "total": 18431}, "geometry": {"type": "Point", "coordinates": [43.222998, 37.089891]}}, {"type": "Feature", "properties": {"name": "Debaga", "total": 17168}, "geometry": {"type": "Point", "coordinates": [43.9941883333, 36.2194416667]}}, {"type": "Feature", "properties": {"name": "Deraboon", "total": 170}, "geometry": {"type": "Point", "coordinates": [42.427375, 37.0858916667]}}, {"type": "Feature", "properties": {"name": "Dinarta", "total": 82}, "geometry": {"type": "Point", "coordinates": [43.9802266667, 36.7943666667]}}, {"type": "Feature", "properties": {"name": "Diwaniya1", "total": 70}, "geometry": {"type": "Point", "coordinates": [44.850612, 31.994515]}}, {"type": "Feature", "properties": {"name": "Dokan", "total": 9190}, "geometry": {"type": "Point", "coordinates": [44.9653233333333, 35.925525]}}, {"type": "Feature", "properties": {"name": "Domez", "total": 3480}, "geometry": {"type": "Point", "coordinates": [44.3762866667, 35.3863533333]}}, {"type": "Feature", "properties": {"name": "Domiz", "total": 39047}, "geometry": {"type": "Point", "coordinates": [42.8851816667, 36.78106]}}, {"type": "Feature", "properties": {"name": "Domiz2", "total": 24208}, "geometry": {"type": "Point", "coordinates": [42.8912633333, 36.7638]}}, {"type": "Feature", "properties": {"name": "Domiz_Nin", "total": 6428}, "geometry": {"type": "Point", "coordinates": [42.9480566666666, 36.8703016666666]}}, {"type": "Feature", "properties": {"name": "Dora", "total": 2719}, "geometry": {"type": "Point", "coordinates": [44.386558, 33.260262]}}, {"type": "Feature", "properties": {"name": "Ein Jheshiya", "total": 726}, "geometry": {"type": "Point", "coordinates": [42.6451183333, 36.6037716667]}}, {"type": "Feature", "properties": {"name": "Ein Owaiz", "total": 909}, "geometry": {"type": "Point", "coordinates": [42.3858216666666, 36.8423283333333]}}, {"type": "Feature", "properties": {"name": "Ekram Zobaa", "total": 930}, "geometry": {"type": "Point", "coordinates": [43.953276, 33.22936]}}, {"type": "Feature", "properties": {"name": "Erbil", "total": 532}, "geometry": {"type": "Point", "coordinates": [44.0, 36.19]}}, {"type": "Feature", "properties": {"name": "Erbil Center", "total": 401}, "geometry": {"type": "Point", "coordinates": [44.0, 36.19]}}, {"type": "Feature", "properties": {"name": "Esiyan", "total": 784}, "geometry": {"type": "Point", "coordinates": [43.2662883333, 36.722525]}}, {"type": "Feature", "properties": {"name": "Essean", "total": 94}, "geometry": {"type": "Point", "coordinates": [43.294444, 36.714782]}}, {"type": "Feature", "properties": {"name": "Essian", "total": 455}, "geometry": {"type": "Point", "coordinates": [43.274975, 36.7210066666666]}}, {"type": "Feature", "properties": {"name": "Eyes Of Missan", "total": 3493}, "geometry": {"type": "Point", "coordinates": [47.117555, 31.8490766667]}}, {"type": "Feature", "properties": {"name": "Furqan", "total": 570}, "geometry": {"type": "Point", "coordinates": [44.5659033333333, 35.3139316666666]}}, {"type": "Feature", "properties": {"name": "G.Al Husien Hosp.", "total": 6}, "geometry": {"type": "Point", "coordinates": [45.2748183333, 31.3203083333]}}, {"type": "Feature", "properties": {"name": "Galaxy", "total": 518}, "geometry": {"type": "Point", "coordinates": [44.3289366667, 36.4028116667]}}, {"type": "Feature", "properties": {"name": "Gardasin", "total": 195}, "geometry": {"type": "Point", "coordinates": [43.8044733333, 36.6586733333]}}, {"type": "Feature", "properties": {"name": "Garmawa", "total": 10937}, "geometry": {"type": "Point", "coordinates": [43.2371466667, 36.646035]}}, {"type": "Feature", "properties": {"name": "Garsur", "total": 365}, "geometry": {"type": "Point", "coordinates": [42.3905283333, 36.7332583333]}}, {"type": "Feature", "properties": {"name": "Gawilan", "total": 31395}, "geometry": {"type": "Point", "coordinates": [43.61581064, 36.33849565]}}, {"type": "Feature", "properties": {"name": "Gessa", "total": 112}, "geometry": {"type": "Point", "coordinates": [42.678485, 36.6006066667]}}, {"type": "Feature", "properties": {"name": "Glay Husain", "total": 147}, "geometry": {"type": "Point", "coordinates": [45.2201383333333, 34.3965016666666]}}, {"type": "Feature", "properties": {"name": "Group In  V. Alhadi", "total": 2}, "geometry": {"type": "Point", "coordinates": [45.3162816667, 31.2573566667]}}, {"type": "Feature", "properties": {"name": "Gulan City", "total": 1030}, "geometry": {"type": "Point", "coordinates": [44.035907, 36.309013]}}, {"type": "Feature", "properties": {"name": "Gulan_City", "total": 194}, "geometry": {"type": "Point", "coordinates": [43.988065, 36.2344416666666]}}, {"type": "Feature", "properties": {"name": "Guss Swalem", "total": 2947}, "geometry": {"type": "Point", "coordinates": [44.403805, 32.4185216667]}}, {"type": "Feature", "properties": {"name": "Habeeb-All-Malih", "total": 5496}, "geometry": {"type": "Point", "coordinates": [44.0110433333, 36.23216]}}, {"type": "Feature", "properties": {"name": "Haloom", "total": 93}, "geometry": {"type": "Point", "coordinates": [42.2949266667, 36.5338266667]}}, {"type": "Feature", "properties": {"name": "Hamad Agha", "total": 1612}, "geometry": {"type": "Point", "coordinates": [42.4236533333, 36.8187]}}, {"type": "Feature", "properties": {"name": "Harsham", "total": 17778}, "geometry": {"type": "Point", "coordinates": [43.994913, 36.256285]}}, {"type": "Feature", "properties": {"name": "Hay Al Furat - 1", "total": 18}, "geometry": {"type": "Point", "coordinates": [44.90795, 32.010288]}}, {"type": "Feature", "properties": {"name": "Hay Al Furat - 2", "total": 15}, "geometry": {"type": "Point", "coordinates": [44.902471, 32.019229]}}, {"type": "Feature", "properties": {"name": "Hay Alwasiti", "total": 181}, "geometry": {"type": "Point", "coordinates": [44.348578, 35.420021]}}, {"type": "Feature", "properties": {"name": "Hay Asraa", "total": 614}, "geometry": {"type": "Point", "coordinates": [44.402439, 35.429539]}}, {"type": "Feature", "properties": {"name": "Hedhema", "total": 2158}, "geometry": {"type": "Point", "coordinates": [42.7195733333, 36.5338916667]}}, {"type": "Feature", "properties": {"name": "Hevi", "total": 843}, "geometry": {"type": "Point", "coordinates": [43.00589, 36.850119]}}, {"type": "Feature", "properties": {"name": "Hiba Mohsin Ahmed", "total": 2511}, "geometry": {"type": "Point", "coordinates": [44.28099, 32.280443]}}, {"type": "Feature", "properties": {"name": "Hugna", "total": 2231}, "geometry": {"type": "Point", "coordinates": [42.5581683333, 36.5620533333]}}, {"type": "Feature", "properties": {"name": "Huzairan", "total": 231}, "geometry": {"type": "Point", "coordinates": [44.342891, 35.409465]}}, {"type": "Feature", "properties": {"name": "Iraq Tent", "total": 34}, "geometry": {"type": "Point", "coordinates": [44.3601149999999, 33.1297233333333]}}, {"type": "Feature", "properties": {"name": "Iraq_Tent", "total": 1236}, "geometry": {"type": "Point", "coordinates": [44.3564116667, 33.12995]}}, {"type": "Feature", "properties": {"name": "Iseka", "total": 657}, "geometry": {"type": "Point", "coordinates": [42.28751, 36.89555]}}, {"type": "Feature", "properties": {"name": "Iska", "total": 97}, "geometry": {"type": "Point", "coordinates": [42.2880183333, 36.8994433333]}}, {"type": "Feature", "properties": {"name": "Jazronia", "total": 146}, "geometry": {"type": "Point", "coordinates": [42.4269, 36.8981016667]}}, {"type": "Feature", "properties": {"name": "Kabartio 2", "total": 47}, "geometry": {"type": "Point", "coordinates": [42.8580233333, 36.7882933333]}}, {"type": "Feature", "properties": {"name": "Kabarto 1", "total": 1752}, "geometry": {"type": "Point", "coordinates": [42.858385, 36.7883316667]}}, {"type": "Feature", "properties": {"name": "Kabarto 2", "total": 35000}, "geometry": {"type": "Point", "coordinates": [42.858385, 36.7883316667]}}, {"type": "Feature", "properties": {"name": "Kahrez", "total": 20}, "geometry": {"type": "Point", "coordinates": [42.5692116666666, 36.5600533333333]}}, {"type": "Feature", "properties": {"name": "Kalak", "total": 1402}, "geometry": {"type": "Point", "coordinates": [43.673424, 36.272136]}}, {"type": "Feature", "properties": {"name": "Kalhe", "total": 1373}, "geometry": {"type": "Point", "coordinates": [42.2728683333333, 36.9622833333333]}}, {"type": "Feature", "properties": {"name": "Kasnazan", "total": 1194}, "geometry": {"type": "Point", "coordinates": [44.13, 36.2]}}, {"type": "Feature", "properties": {"name": "Kerad Zobaa", "total": 1107}, "geometry": {"type": "Point", "coordinates": [43.953276, 33.22936]}}, {"type": "Feature", "properties": {"name": "Kerad Zobaa1", "total": 192}, "geometry": {"type": "Point", "coordinates": [43.953276, 33.22936]}}, {"type": "Feature", "properties": {"name": "Kerbala", "total": 263}, "geometry": {"type": "Point", "coordinates": [44.07268, 32.5577783333]}}, {"type": "Feature", "properties": {"name": "Khalobaziani", "total": 4134}, "geometry": {"type": "Point", "coordinates": [44.6312266666666, 35.4165299999999]}}, {"type": "Feature", "properties": {"name": "Khanaqa", "total": 674}, "geometry": {"type": "Point", "coordinates": [44.3289733333, 36.40248]}}, {"type": "Feature", "properties": {"name": "Khanaqin", "total": 2891}, "geometry": {"type": "Point", "coordinates": [45.383752, 34.349796]}}, {"type": "Feature", "properties": {"name": "Khanasor", "total": 1034}, "geometry": {"type": "Point", "coordinates": [41.7908999999999, 36.376275]}}, {"type": "Feature", "properties": {"name": "Khanke", "total": 85115}, "geometry": {"type": "Point", "coordinates": [42.7709883333, 36.7831166667]}}, {"type": "Feature", "properties": {"name": "Khanke-Phc", "total": 28}, "geometry": {"type": "Point", "coordinates": [42.7785283333333, 36.7843816666666]}}, {"type": "Feature", "properties": {"name": "Khanke1", "total": 2921}, "geometry": {"type": "Point", "coordinates": [42.7709883333, 36.7831166667]}}, {"type": "Feature", "properties": {"name": "Khernabat Agiculture", "total": 13290}, "geometry": {"type": "Point", "coordinates": [44.192407, 33.22229]}}, {"type": "Feature", "properties": {"name": "Kilo 10", "total": 552}, "geometry": {"type": "Point", "coordinates": [43.1376733333333, 33.3988533333333]}}, {"type": "Feature", "properties": {"name": "Kilo 60", "total": 1706}, "geometry": {"type": "Point", "coordinates": [42.7447383333333, 33.308025]}}, {"type": "Feature", "properties": {"name": "Kowergosek", "total": 52364}, "geometry": {"type": "Point", "coordinates": [43.8119003542573, 36.3453310247561]}}, {"type": "Feature", "properties": {"name": "Kumait Cente", "total": 574}, "geometry": {"type": "Point", "coordinates": [46.8829733333, 32.031695]}}, {"type": "Feature", "properties": {"name": "Laylan", "total": 2597}, "geometry": {"type": "Point", "coordinates": [44.530577, 35.328242]}}, {"type": "Feature", "properties": {"name": "Ma Baina Al Harameen", "total": 447}, "geometry": {"type": "Point", "coordinates": [44.31537, 32.170455]}}, {"type": "Feature", "properties": {"name": "Mahat", "total": 188}, "geometry": {"type": "Point", "coordinates": [43.4023416667, 36.6515466667]}}, {"type": "Feature", "properties": {"name": "Mamilian", "total": 16505}, "geometry": {"type": "Point", "coordinates": [42.9640166667, 36.8715366667]}}, {"type": "Feature", "properties": {"name": "Mamrashan", "total": 11076}, "geometry": {"type": "Point", "coordinates": [43.4337083333, 36.6707316667]}}, {"type": "Feature", "properties": {"name": "Mamzawa", "total": 4800}, "geometry": {"type": "Point", "coordinates": [43.96, 36.11]}}, {"type": "Feature", "properties": {"name": "Manathera", "total": 2356}, "geometry": {"type": "Point", "coordinates": [44.44277, 31.935638]}}, {"type": "Feature", "properties": {"name": "Mangesh", "total": 972}, "geometry": {"type": "Point", "coordinates": [43.016503, 36.855727]}}, {"type": "Feature", "properties": {"name": "Marem Al-Azraa", "total": 10}, "geometry": {"type": "Point", "coordinates": [44.445442, 33.318231]}}, {"type": "Feature", "properties": {"name": "Mart Shmoni _Kasnazan", "total": 22341}, "geometry": {"type": "Point", "coordinates": [44.1464364713244, 36.2062679087604]}}, {"type": "Feature", "properties": {"name": "Martshmoony", "total": 54888}, "geometry": {"type": "Point", "coordinates": [43.987, 36.235]}}, {"type": "Feature", "properties": {"name": "Masaka", "total": 1594}, "geometry": {"type": "Point", "coordinates": [42.3030783333, 36.9772783333]}}, {"type": "Feature", "properties": {"name": "Modern Village", "total": 83}, "geometry": {"type": "Point", "coordinates": [44.9179566667, 31.9878833333]}}, {"type": "Feature", "properties": {"name": "Mokb", "total": 30}, "geometry": {"type": "Point", "coordinates": [44.922185, 31.997605]}}, {"type": "Feature", "properties": {"name": "Mokblljwld", "total": 20}, "geometry": {"type": "Point", "coordinates": [45.8280083333333, 32.5102733333333]}}, {"type": "Feature", "properties": {"name": "Mosqnes", "total": 41}, "geometry": {"type": "Point", "coordinates": [44.9825216667, 31.7175966667]}}, {"type": "Feature", "properties": {"name": "Mosquest And Modernvillage", "total": 91}, "geometry": {"type": "Point", "coordinates": [44.98245, 31.7175883333]}}, {"type": "Feature", "properties": {"name": "Musharaf Abeet", "total": 747}, "geometry": {"type": "Point", "coordinates": [42.828946, 36.511345]}}, {"type": "Feature", "properties": {"name": "Nabi Sheit", "total": 1}, "geometry": {"type": "Point", "coordinates": [44.379183, 33.43195]}}, {"type": "Feature", "properties": {"name": "Najaf Tbc", "total": 84}, "geometry": {"type": "Point", "coordinates": [44.31537, 32.170455]}}, {"type": "Feature", "properties": {"name": "Nazrawa", "total": 170}, "geometry": {"type": "Point", "coordinates": [44.576665, 35.29007]}}, {"type": "Feature", "properties": {"name": "Nazrawa1", "total": 5581}, "geometry": {"type": "Point", "coordinates": [44.5772116666666, 35.2902233333333]}}, {"type": "Feature", "properties": {"name": "New Halabja", "total": 1049}, "geometry": {"type": "Point", "coordinates": [45.689025, 35.3228983333333]}}, {"type": "Feature", "properties": {"name": "Omar Khalid", "total": 863}, "geometry": {"type": "Point", "coordinates": [42.9478516666666, 36.8703433333333]}}, {"type": "Feature", "properties": {"name": "Ozal City", "total": 2150}, "geometry": {"type": "Point", "coordinates": [44.1442283333333, 36.2241299999999]}}, {"type": "Feature", "properties": {"name": "Panja Ali", "total": 1572}, "geometry": {"type": "Point", "coordinates": [44.4292333333333, 35.4338433333333]}}, {"type": "Feature", "properties": {"name": "Piramagroon", "total": 14779}, "geometry": {"type": "Point", "coordinates": [45.146834, 35.732901]}}, {"type": "Feature", "properties": {"name": "Qadissia", "total": 166}, "geometry": {"type": "Point", "coordinates": [44.421178, 35.415974]}}, {"type": "Feature", "properties": {"name": "Qaladiza", "total": 2486}, "geometry": {"type": "Point", "coordinates": [45.127778, 36.183333]}}, {"type": "Feature", "properties": {"name": "Qalat Salih", "total": 1}, "geometry": {"type": "Point", "coordinates": [47.284695, 31.631981]}}, {"type": "Feature", "properties": {"name": "Qoratu/Banrasayi", "total": 12150}, "geometry": {"type": "Point", "coordinates": [45.31243, 34.6182116667]}}, {"type": "Feature", "properties": {"name": "Qushtapa", "total": 32576}, "geometry": {"type": "Point", "coordinates": [44.0365197678442, 35.9822508097935]}}, {"type": "Feature", "properties": {"name": "Rabiaa", "total": 4506}, "geometry": {"type": "Point", "coordinates": [42.0928283333333, 36.8011916666666]}}, {"type": "Feature", "properties": {"name": "Raniya", "total": 8811}, "geometry": {"type": "Point", "coordinates": [45.44, 35.56]}}, {"type": "Feature", "properties": {"name": "Raperin", "total": 3772}, "geometry": {"type": "Point", "coordinates": [45.24527778, 34.65944444]}}, {"type": "Feature", "properties": {"name": "Rwanga Community", "total": 9508}, "geometry": {"type": "Point", "coordinates": [42.6228683333333, 37.0635616666666]}}, {"type": "Feature", "properties": {"name": "Saad", "total": 397}, "geometry": {"type": "Point", "coordinates": [44.6127366667, 33.716135]}}, {"type": "Feature", "properties": {"name": "Saba Al Bor", "total": 11061}, "geometry": {"type": "Point", "coordinates": [44.15151, 33.459903]}}, {"type": "Feature", "properties": {"name": "Said Alshuhdaa", "total": 1246}, "geometry": {"type": "Point", "coordinates": [44.31537, 32.170455]}}, {"type": "Feature", "properties": {"name": "Said Sadiq", "total": 767}, "geometry": {"type": "Point", "coordinates": [45.86605, 35.36078]}}, {"type": "Feature", "properties": {"name": "Salah-Aga", "total": 215}, "geometry": {"type": "Point", "coordinates": [45.28, 34.63]}}, {"type": "Feature", "properties": {"name": "Samagur", "total": 45}, "geometry": {"type": "Point", "coordinates": [44.641925, 34.885764]}}, {"type": "Feature", "properties": {"name": "Sardashti", "total": 1101}, "geometry": {"type": "Point", "coordinates": [41.7294, 36.3727]}}, {"type": "Feature", "properties": {"name": "Says City", "total": 450}, "geometry": {"type": "Point", "coordinates": [45.34328, 35.60835]}}, {"type": "Feature", "properties": {"name": "Seage", "total": 6621}, "geometry": {"type": "Point", "coordinates": [42.8795516667, 36.9110783333]}}, {"type": "Feature", "properties": {"name": "Seagy", "total": 8357}, "geometry": {"type": "Point", "coordinates": [42.8795516667, 36.9110783333]}}, {"type": "Feature", "properties": {"name": "Seberden", "total": 5853}, "geometry": {"type": "Point", "coordinates": [44.1002, 36.2039]}}, {"type": "Feature", "properties": {"name": "Shahan City", "total": 12817}, "geometry": {"type": "Point", "coordinates": [44.3290316667, 36.4025133333]}}, {"type": "Feature", "properties": {"name": "Shamiya", "total": 3}, "geometry": {"type": "Point", "coordinates": [44.547835, 32.0160783333333]}}, {"type": "Feature", "properties": {"name": "Shaqlawa", "total": 6890}, "geometry": {"type": "Point", "coordinates": [44.3289866667, 36.4027616667]}}, {"type": "Feature", "properties": {"name": "Shaqlawa1", "total": 2368}, "geometry": {"type": "Point", "coordinates": [44.3289866667, 36.4027616667]}}, {"type": "Feature", "properties": {"name": "Sharfadeen", "total": 1076}, "geometry": {"type": "Point", "coordinates": [41.86798, 36.42832]}}, {"type": "Feature", "properties": {"name": "Sharya", "total": 118667}, "geometry": {"type": "Point", "coordinates": [42.9591583333333, 36.79999]}}, {"type": "Feature", "properties": {"name": "Sharya1", "total": 1433}, "geometry": {"type": "Point", "coordinates": [42.967528, 36.793444]}}, {"type": "Feature", "properties": {"name": "Shatea Al Taji", "total": 8282}, "geometry": {"type": "Point", "coordinates": [44.300321, 33.418537]}}, {"type": "Feature", "properties": {"name": "Shawees", "total": 5135}, "geometry": {"type": "Point", "coordinates": [44.0877266667, 36.25178]}}, {"type": "Feature", "properties": {"name": "Shebana", "total": 773}, "geometry": {"type": "Point", "coordinates": [42.3220383333, 36.991425]}}, {"type": "Feature", "properties": {"name": "Shikhan", "total": 39407}, "geometry": {"type": "Point", "coordinates": [43.264287, 36.76067]}}, {"type": "Feature", "properties": {"name": "Shoraw", "total": 15}, "geometry": {"type": "Point", "coordinates": [44.850612, 31.994515]}}, {"type": "Feature", "properties": {"name": "Shorawa", "total": 194}, "geometry": {"type": "Point", "coordinates": [44.5023366666666, 35.0768883333333]}}, {"type": "Feature", "properties": {"name": "Sid Jaber", "total": 4}, "geometry": {"type": "Point", "coordinates": [45.1831883333333, 31.542205]}}, {"type": "Feature", "properties": {"name": "Silo Road", "total": 77}, "geometry": {"type": "Point", "coordinates": [44.908741, 31.927306]}}, {"type": "Feature", "properties": {"name": "Sitak", "total": 633}, "geometry": {"type": "Point", "coordinates": [45.44, 35.56]}}, {"type": "Feature", "properties": {"name": "Sulaymaniyah", "total": 2590}, "geometry": {"type": "Point", "coordinates": [45.2288683333, 35.6296916667]}}, {"type": "Feature", "properties": {"name": "Sulaymaniyah Center", "total": 1038}, "geometry": {"type": "Point", "coordinates": [45.44, 35.56]}}, {"type": "Feature", "properties": {"name": "Takya", "total": 2378}, "geometry": {"type": "Point", "coordinates": [44.3691483333, 33.2256666667]}}, {"type": "Feature", "properties": {"name": "Takya1", "total": 3649}, "geometry": {"type": "Point", "coordinates": [44.366194, 33.229541]}}, {"type": "Feature", "properties": {"name": "Tal Adas", "total": 88}, "geometry": {"type": "Point", "coordinates": [42.992785, 36.61699]}}, {"type": "Feature", "properties": {"name": "Tal Al Hawa", "total": 369}, "geometry": {"type": "Point", "coordinates": [42.3115433333, 36.7457316667]}}, {"type": "Feature", "properties": {"name": "Talmoos", "total": 1610}, "geometry": {"type": "Point", "coordinates": [42.60055, 36.62887]}}, {"type": "Feature", "properties": {"name": "Tanjaro", "total": 1026}, "geometry": {"type": "Point", "coordinates": [45.4480616667, 35.451175]}}, {"type": "Feature", "properties": {"name": "Tarmiya", "total": 7281}, "geometry": {"type": "Point", "coordinates": [44.382769, 33.662647]}}, {"type": "Feature", "properties": {"name": "Tazar De", "total": 11812}, "geometry": {"type": "Point", "coordinates": [45.45034, 34.706155]}}, {"type": "Feature", "properties": {"name": "Tekya", "total": 162}, "geometry": {"type": "Point", "coordinates": [44.9594883333, 35.6196516667]}}, {"type": "Feature", "properties": {"name": "Topaskar", "total": 179}, "geometry": {"type": "Point", "coordinates": [45.28, 34.63]}}, {"type": "Feature", "properties": {"name": "Topzawa", "total": 1243}, "geometry": {"type": "Point", "coordinates": [44.2800316667, 35.3942933333]}}, {"type": "Feature", "properties": {"name": "Turkalan", "total": 767}, "geometry": {"type": "Point", "coordinates": [44.276325, 35.3805316667]}}, {"type": "Feature", "properties": {"name": "Um Al Rabiaain", "total": 1192}, "geometry": {"type": "Point", "coordinates": [42.2162166667, 36.923395]}}, {"type": "Feature", "properties": {"name": "Um _Baneen", "total": 4834}, "geometry": {"type": "Point", "coordinates": [44.0725466666666, 32.557645]}}, {"type": "Feature", "properties": {"name": "Uon", "total": 50}, "geometry": {"type": "Point", "coordinates": [44.0891666666666, 32.6767733333333]}}, {"type": "Feature", "properties": {"name": "Wana", "total": 44746}, "geometry": {"type": "Point", "coordinates": [42.753629, 36.529997]}}, {"type": "Feature", "properties": {"name": "Warki", "total": 1}, "geometry": {"type": "Point", "coordinates": [45.292175, 31.4673516666666]}}, {"type": "Feature", "properties": {"name": "Ya Hussien", "total": 477}, "geometry": {"type": "Point", "coordinates": [44.31537, 32.170455]}}, {"type": "Feature", "properties": {"name": "Ya Hussien1", "total": 3045}, "geometry": {"type": "Point", "coordinates": [44.32639, 32.13971]}}, {"type": "Feature", "properties": {"name": "Yahyawa", "total": 16852}, "geometry": {"type": "Point", "coordinates": [44.4968566666666, 35.3276033333333]}}, {"type": "Feature", "properties": {"name": "Yahyawa1", "total": 7656}, "geometry": {"type": "Point", "coordinates": [44.4968566666666, 35.3276033333333]}}, {"type": "Feature", "properties": {"name": "Zaiton_City", "total": 23766}, "geometry": {"type": "Point", "coordinates": [44.071485, 36.131625]}}, {"type": "Feature", "properties": {"name": "Zaiton_City1", "total": 1388}, "geometry": {"type": "Point", "coordinates": [44.079994, 36.153309]}}, {"type": "Feature", "properties": {"name": "Zawita", "total": 6465}, "geometry": {"type": "Point", "coordinates": [43.12, 36.9]}}, {"type": "Feature", "properties": {"name": "Zeren City", "total": 230}, "geometry": {"type": "Point", "coordinates": [44.0726893059362, 36.2667830336147]}}, {"type": "Feature", "properties": {"name": "Zubydia", "total": 38}, "geometry": {"type": "Point", "coordinates": [45.1595183333, 32.77424]}}, {"type": "Feature", "properties": {"name": "Zummar", "total": 10160}, "geometry": {"type": "Point", "coordinates": [42.5953766667, 36.65303]}}]}