{"type": "FeatureCollection","crs":                     {"type": "name", "properties": { "name":                     "urn:ogc:def:crs:OGC:1.3:CRS84" } },"features": [{"type": "Feature", "properties": {"name": "1St-Of-June", "total": 26}, "geometry": {"type": "Point", "coordinates": [44.33904, 35.402307]}}, {"type": "Feature", "properties": {"name": "Abu-Wajna", "total": 44}, "geometry": {"type": "Point", "coordinates": [42.624142, 36.692167]}}, {"type": "Feature", "properties": {"name": "Abu_Ghraib", "total": 121}, "geometry": {"type": "Point", "coordinates": [44.082918, 33.29612]}}, {"type": "Feature", "properties": {"name": "Afak Road Houses", "total": 13}, "geometry": {"type": "Point", "coordinates": [44.886024, 31.971957]}}, {"type": "Feature", "properties": {"name": "Al Hussain Medical City", "total": 6}, "geometry": {"type": "Point", "coordinates": [44.0327316667, 32.6070233333]}}, {"type": "Feature", "properties": {"name": "Al Jazronai", "total": 20}, "geometry": {"type": "Point", "coordinates": [42.4270616666666, 36.8979483333333]}}, {"type": "Feature", "properties": {"name": "Al Khalidia", "total": 12}, "geometry": {"type": "Point", "coordinates": [43.3815166666666, 33.42813]}}, {"type": "Feature", "properties": {"name": "Al Mumi", "total": 5}, "geometry": {"type": "Point", "coordinates": [42.0479783333, 36.6263816667]}}, {"type": "Feature", "properties": {"name": "Al Shaabi", "total": 78}, "geometry": {"type": "Point", "coordinates": [44.334775, 35.500745]}}, {"type": "Feature", "properties": {"name": "Al- Amal Al -Manshood", "total": 2}, "geometry": {"type": "Point", "coordinates": [43.85168, 33.148139]}}, {"type": "Feature", "properties": {"name": "Al-Abadi", "total": 45}, "geometry": {"type": "Point", "coordinates": [44.44, 35.13]}}, {"type": "Feature", "properties": {"name": "Al-Abayechi", "total": 3}, "geometry": {"type": "Point", "coordinates": [44.390423, 33.661975]}}, {"type": "Feature", "properties": {"name": "Al-Abyad", "total": 103}, "geometry": {"type": "Point", "coordinates": [44.022146, 33.14047]}}, {"type": "Feature", "properties": {"name": "Al-Ahell", "total": 21}, "geometry": {"type": "Point", "coordinates": [44.083895, 33.283734]}}, {"type": "Feature", "properties": {"name": "Al-Alam", "total": 55}, "geometry": {"type": "Point", "coordinates": [43.701102, 34.710135]}}, {"type": "Feature", "properties": {"name": "Al-Amal", "total": 77}, "geometry": {"type": "Point", "coordinates": [42.25, 32.03]}}, {"type": "Feature", "properties": {"name": "Al-Amal Al-Manshud", "total": 102}, "geometry": {"type": "Point", "coordinates": [44.034211, 33.307281]}}, {"type": "Feature", "properties": {"name": "Al-Asfar", "total": 259}, "geometry": {"type": "Point", "coordinates": [44.0144583333, 33.1466683333]}}, {"type": "Feature", "properties": {"name": "Al-Asfar1", "total": 97}, "geometry": {"type": "Point", "coordinates": [44.0144583333, 33.1466683333]}}, {"type": "Feature", "properties": {"name": "Al-Habanyia", "total": 78}, "geometry": {"type": "Point", "coordinates": [43.571611, 33.2448]}}, {"type": "Feature", "properties": {"name": "Al-Habanyia1", "total": 127}, "geometry": {"type": "Point", "coordinates": [43.571611, 33.2448]}}, {"type": "Feature", "properties": {"name": "Al-Habanyia2", "total": 16}, "geometry": {"type": "Point", "coordinates": [43.571611, 33.2448]}}, {"type": "Feature", "properties": {"name": "Al-Malha", "total": 12}, "geometry": {"type": "Point", "coordinates": [44.100683, 35.691301]}}, {"type": "Feature", "properties": {"name": "Al-Nasr Wa Al-Salam", "total": 8}, "geometry": {"type": "Point", "coordinates": [44.029029, 33.309256]}}, {"type": "Feature", "properties": {"name": "Al-Nedaa Mosque", "total": 6}, "geometry": {"type": "Point", "coordinates": [44.384234, 33.37447]}}, {"type": "Feature", "properties": {"name": "Al-Obaidi", "total": 290}, "geometry": {"type": "Point", "coordinates": [41.219072, 34.417309]}}, {"type": "Feature", "properties": {"name": "Al-Rahalyia", "total": 25}, "geometry": {"type": "Point", "coordinates": [43.38848, 32.765046]}}, {"type": "Feature", "properties": {"name": "Al-Rasala", "total": 65}, "geometry": {"type": "Point", "coordinates": [44.100972, 33.306747]}}, {"type": "Feature", "properties": {"name": "Al-Salam", "total": 1183}, "geometry": {"type": "Point", "coordinates": [43.85, 33.16]}}, {"type": "Feature", "properties": {"name": "Al-Taawn", "total": 64}, "geometry": {"type": "Point", "coordinates": [44.065528, 34.076353]}}, {"type": "Feature", "properties": {"name": "Alameria", "total": 20}, "geometry": {"type": "Point", "coordinates": [43.8482833333333, 33.1486833333333]}}, {"type": "Feature", "properties": {"name": "Alaskan", "total": 11}, "geometry": {"type": "Point", "coordinates": [44.9759133333, 31.9809466667]}}, {"type": "Feature", "properties": {"name": "Albatar & Caravanat Alzurgan", "total": 39}, "geometry": {"type": "Point", "coordinates": [45.7161566667, 32.5518166667]}}, {"type": "Feature", "properties": {"name": "Ali Abar", "total": 5}, "geometry": {"type": "Point", "coordinates": [42.3309233333, 36.9270016667]}}, {"type": "Feature", "properties": {"name": "Aliawa", "total": 27}, "geometry": {"type": "Point", "coordinates": [45.326362, 34.342164]}}, {"type": "Feature", "properties": {"name": "Aliyouka", "total": 3}, "geometry": {"type": "Point", "coordinates": [42.247435, 36.92368]}}, {"type": "Feature", "properties": {"name": "Alkarma Complex", "total": 18}, "geometry": {"type": "Point", "coordinates": [43.9880133333333, 36.234185]}}, {"type": "Feature", "properties": {"name": "All Mohanaweia And All Salaheias Mawakeb", "total": 9}, "geometry": {"type": "Point", "coordinates": [44.934263, 32.1424]}}, {"type": "Feature", "properties": {"name": "Alqosh", "total": 557}, "geometry": {"type": "Point", "coordinates": [43.098872, 36.736717]}}, {"type": "Feature", "properties": {"name": "Alshohadaa_Complxe", "total": 9}, "geometry": {"type": "Point", "coordinates": [47.02127, 30.9715216667]}}, {"type": "Feature", "properties": {"name": "Amerli", "total": 5}, "geometry": {"type": "Point", "coordinates": [44.586425, 34.725706]}}, {"type": "Feature", "properties": {"name": "Amriate_Alfallujah", "total": 1}, "geometry": {"type": "Point", "coordinates": [43.864516, 33.167523]}}, {"type": "Feature", "properties": {"name": "Amriate_Alfallujah1", "total": 10}, "geometry": {"type": "Point", "coordinates": [43.864516, 33.167523]}}, {"type": "Feature", "properties": {"name": "Amriate_Alfallujah2", "total": 40}, "geometry": {"type": "Point", "coordinates": [43.864516, 33.167523]}}, {"type": "Feature", "properties": {"name": "Amriate_Alfallujah3", "total": 22}, "geometry": {"type": "Point", "coordinates": [43.864516, 33.167523]}}, {"type": "Feature", "properties": {"name": "Ankawa-Mall", "total": 166}, "geometry": {"type": "Point", "coordinates": [43.991834, 36.237448]}}, {"type": "Feature", "properties": {"name": "Arbat", "total": 10}, "geometry": {"type": "Point", "coordinates": [45.590574, 35.4344959]}}, {"type": "Feature", "properties": {"name": "Arbat Idp", "total": 3004}, "geometry": {"type": "Point", "coordinates": [45.590574, 35.4344959]}}, {"type": "Feature", "properties": {"name": "Arbat Refugee", "total": 2022}, "geometry": {"type": "Point", "coordinates": [45.59069, 35.43057]}}, {"type": "Feature", "properties": {"name": "Ashti", "total": 1454}, "geometry": {"type": "Point", "coordinates": [45.5886199999999, 35.422128]}}, {"type": "Feature", "properties": {"name": "Awen Eshar", "total": 81}, "geometry": {"type": "Point", "coordinates": [44.070651, 36.140377]}}, {"type": "Feature", "properties": {"name": "Babil Hotel", "total": 341}, "geometry": {"type": "Point", "coordinates": [44.4350483333, 32.5156083333]}}, {"type": "Feature", "properties": {"name": "Badawa", "total": 20}, "geometry": {"type": "Point", "coordinates": [44.6110683333333, 35.2433716666666]}}, {"type": "Feature", "properties": {"name": "Baharka", "total": 1007}, "geometry": {"type": "Point", "coordinates": [43.990685, 36.295355]}}, {"type": "Feature", "properties": {"name": "Bajit Kandala", "total": 3539}, "geometry": {"type": "Point", "coordinates": [42.4409, 37.0535]}}, {"type": "Feature", "properties": {"name": "Bajit Kandala2", "total": 362}, "geometry": {"type": "Point", "coordinates": [42.4409, 37.0535]}}, {"type": "Feature", "properties": {"name": "Bajwan", "total": 56}, "geometry": {"type": "Point", "coordinates": [44.28012, 35.543005]}}, {"type": "Feature", "properties": {"name": "Balad", "total": 378}, "geometry": {"type": "Point", "coordinates": [44.150284, 34.01097]}}, {"type": "Feature", "properties": {"name": "Bardarash", "total": 3555}, "geometry": {"type": "Point", "coordinates": [43.56717, 36.49315]}}, {"type": "Feature", "properties": {"name": "Bardiya", "total": 13}, "geometry": {"type": "Point", "coordinates": [42.9478166666666, 36.8702]}}, {"type": "Feature", "properties": {"name": "Barika", "total": 50}, "geometry": {"type": "Point", "coordinates": [45.44, 35.56]}}, {"type": "Feature", "properties": {"name": "Barzinja", "total": 44}, "geometry": {"type": "Point", "coordinates": [45.6879716666666, 35.5286916666666]}}, {"type": "Feature", "properties": {"name": "Bashair", "total": 4}, "geometry": {"type": "Point", "coordinates": [46.24121, 31.0636466667]}}, {"type": "Feature", "properties": {"name": "Basirma", "total": 928}, "geometry": {"type": "Point", "coordinates": [44.3409937848482, 36.4966868474105]}}, {"type": "Feature", "properties": {"name": "Berseve 1", "total": 46}, "geometry": {"type": "Point", "coordinates": [42.8588366666666, 37.1806283333333]}}, {"type": "Feature", "properties": {"name": "Berseve 2", "total": 1726}, "geometry": {"type": "Point", "coordinates": [42.8642116666666, 37.1826833333333]}}, {"type": "Feature", "properties": {"name": "Boark", "total": 3}, "geometry": {"type": "Point", "coordinates": [42.85682, 36.792585]}}, {"type": "Feature", "properties": {"name": "Brazilian", "total": 29}, "geometry": {"type": "Point", "coordinates": [44.328905, 36.4024883333]}}, {"type": "Feature", "properties": {"name": "Bzsbiz", "total": 8}, "geometry": {"type": "Point", "coordinates": [43.865164, 33.174731]}}, {"type": "Feature", "properties": {"name": "Chamchamal", "total": 257}, "geometry": {"type": "Point", "coordinates": [44.8098516667, 35.5265483333]}}, {"type": "Feature", "properties": {"name": "Chamishku", "total": 569}, "geometry": {"type": "Point", "coordinates": [42.6661833765872, 37.1750312588697]}}, {"type": "Feature", "properties": {"name": "Dahuk", "total": 192}, "geometry": {"type": "Point", "coordinates": [42.949419, 36.864712]}}, {"type": "Feature", "properties": {"name": "Darashakran", "total": 1451}, "geometry": {"type": "Point", "coordinates": [43.8925916666666, 36.4737699999999]}}, {"type": "Feature", "properties": {"name": "Dary Clinic", "total": 226}, "geometry": {"type": "Point", "coordinates": [44.398626, 33.32276]}}, {"type": "Feature", "properties": {"name": "Dawanesh", "total": 40}, "geometry": {"type": "Point", "coordinates": [42.855292, 36.504894]}}, {"type": "Feature", "properties": {"name": "Dawodia", "total": 489}, "geometry": {"type": "Point", "coordinates": [43.222998, 37.089891]}}, {"type": "Feature", "properties": {"name": "Debaga", "total": 774}, "geometry": {"type": "Point", "coordinates": [43.9941883333, 36.2194416667]}}, {"type": "Feature", "properties": {"name": "Diwaniya1", "total": 2}, "geometry": {"type": "Point", "coordinates": [44.850612, 31.994515]}}, {"type": "Feature", "properties": {"name": "Dokan", "total": 146}, "geometry": {"type": "Point", "coordinates": [44.9653233333333, 35.925525]}}, {"type": "Feature", "properties": {"name": "Domez", "total": 79}, "geometry": {"type": "Point", "coordinates": [44.3762866667, 35.3863533333]}}, {"type": "Feature", "properties": {"name": "Domiz", "total": 3175}, "geometry": {"type": "Point", "coordinates": [42.8851816667, 36.78106]}}, {"type": "Feature", "properties": {"name": "Domiz2", "total": 557}, "geometry": {"type": "Point", "coordinates": [42.8912633333, 36.7638]}}, {"type": "Feature", "properties": {"name": "Domiz_Nin", "total": 870}, "geometry": {"type": "Point", "coordinates": [42.9480566666666, 36.8703016666666]}}, {"type": "Feature", "properties": {"name": "Dora", "total": 1}, "geometry": {"type": "Point", "coordinates": [44.386558, 33.260262]}}, {"type": "Feature", "properties": {"name": "Ekram Zobaa", "total": 56}, "geometry": {"type": "Point", "coordinates": [43.953276, 33.22936]}}, {"type": "Feature", "properties": {"name": "Erbil", "total": 7}, "geometry": {"type": "Point", "coordinates": [44.0, 36.19]}}, {"type": "Feature", "properties": {"name": "Essean", "total": 17}, "geometry": {"type": "Point", "coordinates": [43.294444, 36.714782]}}, {"type": "Feature", "properties": {"name": "Essian", "total": 64}, "geometry": {"type": "Point", "coordinates": [43.274975, 36.7210066666666]}}, {"type": "Feature", "properties": {"name": "Furqan", "total": 21}, "geometry": {"type": "Point", "coordinates": [44.5659033333333, 35.3139316666666]}}, {"type": "Feature", "properties": {"name": "Garmawa", "total": 32}, "geometry": {"type": "Point", "coordinates": [43.2371466667, 36.646035]}}, {"type": "Feature", "properties": {"name": "Garsur", "total": 1}, "geometry": {"type": "Point", "coordinates": [42.3905283333, 36.7332583333]}}, {"type": "Feature", "properties": {"name": "Gawilan", "total": 1465}, "geometry": {"type": "Point", "coordinates": [43.61581064, 36.33849565]}}, {"type": "Feature", "properties": {"name": "Glay Husain", "total": 30}, "geometry": {"type": "Point", "coordinates": [45.2201383333333, 34.3965016666666]}}, {"type": "Feature", "properties": {"name": "Gulan City", "total": 93}, "geometry": {"type": "Point", "coordinates": [44.035907, 36.309013]}}, {"type": "Feature", "properties": {"name": "Gulan_City", "total": 15}, "geometry": {"type": "Point", "coordinates": [43.988065, 36.2344416666666]}}, {"type": "Feature", "properties": {"name": "Guss Swalem", "total": 18}, "geometry": {"type": "Point", "coordinates": [44.403805, 32.4185216667]}}, {"type": "Feature", "properties": {"name": "Habeeb-All-Malih", "total": 1354}, "geometry": {"type": "Point", "coordinates": [44.0110433333, 36.23216]}}, {"type": "Feature", "properties": {"name": "Hamad Agha", "total": 2}, "geometry": {"type": "Point", "coordinates": [42.4236533333, 36.8187]}}, {"type": "Feature", "properties": {"name": "Harsham", "total": 877}, "geometry": {"type": "Point", "coordinates": [43.994913, 36.256285]}}, {"type": "Feature", "properties": {"name": "Hay Al Furat - 2", "total": 9}, "geometry": {"type": "Point", "coordinates": [44.902471, 32.019229]}}, {"type": "Feature", "properties": {"name": "Hedhema", "total": 1}, "geometry": {"type": "Point", "coordinates": [42.7195733333, 36.5338916667]}}, {"type": "Feature", "properties": {"name": "Hiba Mohsin Ahmed", "total": 22}, "geometry": {"type": "Point", "coordinates": [44.28099, 32.280443]}}, {"type": "Feature", "properties": {"name": "Hugna", "total": 1}, "geometry": {"type": "Point", "coordinates": [42.5581683333, 36.5620533333]}}, {"type": "Feature", "properties": {"name": "Iraq Tent", "total": 5}, "geometry": {"type": "Point", "coordinates": [44.3601149999999, 33.1297233333333]}}, {"type": "Feature", "properties": {"name": "Iraq_Tent", "total": 9}, "geometry": {"type": "Point", "coordinates": [44.3564116667, 33.12995]}}, {"type": "Feature", "properties": {"name": "Kabarto 1", "total": 5}, "geometry": {"type": "Point", "coordinates": [42.858385, 36.7883316667]}}, {"type": "Feature", "properties": {"name": "Kabarto 2", "total": 606}, "geometry": {"type": "Point", "coordinates": [42.858385, 36.7883316667]}}, {"type": "Feature", "properties": {"name": "Kalak", "total": 56}, "geometry": {"type": "Point", "coordinates": [43.673424, 36.272136]}}, {"type": "Feature", "properties": {"name": "Kasnazan", "total": 12}, "geometry": {"type": "Point", "coordinates": [44.13, 36.2]}}, {"type": "Feature", "properties": {"name": "Kerad Zobaa", "total": 1}, "geometry": {"type": "Point", "coordinates": [43.953276, 33.22936]}}, {"type": "Feature", "properties": {"name": "Khalobaziani", "total": 33}, "geometry": {"type": "Point", "coordinates": [44.6312266666666, 35.4165299999999]}}, {"type": "Feature", "properties": {"name": "Khanaqin", "total": 87}, "geometry": {"type": "Point", "coordinates": [45.383752, 34.349796]}}, {"type": "Feature", "properties": {"name": "Khanasor", "total": 41}, "geometry": {"type": "Point", "coordinates": [41.7908999999999, 36.376275]}}, {"type": "Feature", "properties": {"name": "Khanke", "total": 1835}, "geometry": {"type": "Point", "coordinates": [42.7709883333, 36.7831166667]}}, {"type": "Feature", "properties": {"name": "Khanke-Phc", "total": 2}, "geometry": {"type": "Point", "coordinates": [42.7785283333333, 36.7843816666666]}}, {"type": "Feature", "properties": {"name": "Khanke1", "total": 1}, "geometry": {"type": "Point", "coordinates": [42.7709883333, 36.7831166667]}}, {"type": "Feature", "properties": {"name": "Khernabat Agiculture", "total": 147}, "geometry": {"type": "Point", "coordinates": [44.192407, 33.22229]}}, {"type": "Feature", "properties": {"name": "Kilo 10", "total": 17}, "geometry": {"type": "Point", "coordinates": [43.1376733333333, 33.3988533333333]}}, {"type": "Feature", "properties": {"name": "Kowergosek", "total": 1759}, "geometry": {"type": "Point", "coordinates": [43.8119003542573, 36.3453310247561]}}, {"type": "Feature", "properties": {"name": "Laylan", "total": 23}, "geometry": {"type": "Point", "coordinates": [45.38222, 35.5795583333]}}, {"type": "Feature", "properties": {"name": "Ma Baina Al Harameen", "total": 22}, "geometry": {"type": "Point", "coordinates": [44.31537, 32.170455]}}, {"type": "Feature", "properties": {"name": "Mamilian", "total": 472}, "geometry": {"type": "Point", "coordinates": [42.9640166667, 36.8715366667]}}, {"type": "Feature", "properties": {"name": "Mamrashan", "total": 1}, "geometry": {"type": "Point", "coordinates": [43.4337083333, 36.6707316667]}}, {"type": "Feature", "properties": {"name": "Mamzawa", "total": 122}, "geometry": {"type": "Point", "coordinates": [43.96, 36.11]}}, {"type": "Feature", "properties": {"name": "Manathera", "total": 13}, "geometry": {"type": "Point", "coordinates": [44.44277, 31.935638]}}, {"type": "Feature", "properties": {"name": "Mangesh", "total": 10}, "geometry": {"type": "Point", "coordinates": [43.016503, 36.855727]}}, {"type": "Feature", "properties": {"name": "Mart Shmoni _Kasnazan", "total": 6}, "geometry": {"type": "Point", "coordinates": [44.1464364713244, 36.2062679087604]}}, {"type": "Feature", "properties": {"name": "Martshmoony", "total": 984}, "geometry": {"type": "Point", "coordinates": [43.987, 36.235]}}, {"type": "Feature", "properties": {"name": "Masaka", "total": 4}, "geometry": {"type": "Point", "coordinates": [42.3030783333, 36.9772783333]}}, {"type": "Feature", "properties": {"name": "Modern Village", "total": 7}, "geometry": {"type": "Point", "coordinates": [44.9179566667, 31.9878833333]}}, {"type": "Feature", "properties": {"name": "Mosquest And Modernvillage", "total": 9}, "geometry": {"type": "Point", "coordinates": [44.98245, 31.7175883333]}}, {"type": "Feature", "properties": {"name": "Musharaf Abeet", "total": 67}, "geometry": {"type": "Point", "coordinates": [42.828946, 36.511345]}}, {"type": "Feature", "properties": {"name": "Nazrawa1", "total": 104}, "geometry": {"type": "Point", "coordinates": [44.5772116666666, 35.2902233333333]}}, {"type": "Feature", "properties": {"name": "New Halabja", "total": 73}, "geometry": {"type": "Point", "coordinates": [45.689025, 35.3228983333333]}}, {"type": "Feature", "properties": {"name": "Omar Khalid", "total": 251}, "geometry": {"type": "Point", "coordinates": [42.9478516666666, 36.8703433333333]}}, {"type": "Feature", "properties": {"name": "Ozal City", "total": 22}, "geometry": {"type": "Point", "coordinates": [44.1442283333333, 36.2241299999999]}}, {"type": "Feature", "properties": {"name": "Panja Ali", "total": 8}, "geometry": {"type": "Point", "coordinates": [44.4292333333333, 35.4338433333333]}}, {"type": "Feature", "properties": {"name": "Piramagroon", "total": 399}, "geometry": {"type": "Point", "coordinates": [45.146834, 35.732901]}}, {"type": "Feature", "properties": {"name": "Qaladiza", "total": 1}, "geometry": {"type": "Point", "coordinates": [45.127778, 36.183333]}}, {"type": "Feature", "properties": {"name": "Qoratu/Banrasayi", "total": 261}, "geometry": {"type": "Point", "coordinates": [45.31243, 34.6182116667]}}, {"type": "Feature", "properties": {"name": "Qushtapa", "total": 2368}, "geometry": {"type": "Point", "coordinates": [44.0365197678442, 35.9822508097935]}}, {"type": "Feature", "properties": {"name": "Rabiaa", "total": 47}, "geometry": {"type": "Point", "coordinates": [42.0928283333333, 36.8011916666666]}}, {"type": "Feature", "properties": {"name": "Raniya", "total": 181}, "geometry": {"type": "Point", "coordinates": [45.44, 35.56]}}, {"type": "Feature", "properties": {"name": "Rwanga Community", "total": 170}, "geometry": {"type": "Point", "coordinates": [42.6228683333333, 37.0635616666666]}}, {"type": "Feature", "properties": {"name": "Saba Al Bor", "total": 8}, "geometry": {"type": "Point", "coordinates": [44.15151, 33.459903]}}, {"type": "Feature", "properties": {"name": "Said Alshuhdaa", "total": 39}, "geometry": {"type": "Point", "coordinates": [44.31537, 32.170455]}}, {"type": "Feature", "properties": {"name": "Said Sadiq", "total": 21}, "geometry": {"type": "Point", "coordinates": [45.86605, 35.36078]}}, {"type": "Feature", "properties": {"name": "Salah-Aga", "total": 1}, "geometry": {"type": "Point", "coordinates": [45.28, 34.63]}}, {"type": "Feature", "properties": {"name": "Samagur", "total": 17}, "geometry": {"type": "Point", "coordinates": [44.641925, 34.885764]}}, {"type": "Feature", "properties": {"name": "Sardashti", "total": 96}, "geometry": {"type": "Point", "coordinates": [41.7294, 36.3727]}}, {"type": "Feature", "properties": {"name": "Seage", "total": 14}, "geometry": {"type": "Point", "coordinates": [42.8795516667, 36.9110783333]}}, {"type": "Feature", "properties": {"name": "Seagy", "total": 218}, "geometry": {"type": "Point", "coordinates": [42.8795516667, 36.9110783333]}}, {"type": "Feature", "properties": {"name": "Seberden", "total": 129}, "geometry": {"type": "Point", "coordinates": [44.1002, 36.2039]}}, {"type": "Feature", "properties": {"name": "Shahan City", "total": 442}, "geometry": {"type": "Point", "coordinates": [44.3290316667, 36.4025133333]}}, {"type": "Feature", "properties": {"name": "Shaqlawa", "total": 187}, "geometry": {"type": "Point", "coordinates": [44.3289866667, 36.4027616667]}}, {"type": "Feature", "properties": {"name": "Shaqlawa1", "total": 1}, "geometry": {"type": "Point", "coordinates": [44.3289866667, 36.4027616667]}}, {"type": "Feature", "properties": {"name": "Sharfadeen", "total": 48}, "geometry": {"type": "Point", "coordinates": [41.86798, 36.42832]}}, {"type": "Feature", "properties": {"name": "Sharya", "total": 7955}, "geometry": {"type": "Point", "coordinates": [42.9591583333333, 36.79999]}}, {"type": "Feature", "properties": {"name": "Sharya1", "total": 9}, "geometry": {"type": "Point", "coordinates": [42.967528, 36.793444]}}, {"type": "Feature", "properties": {"name": "Shatea Al Taji", "total": 92}, "geometry": {"type": "Point", "coordinates": [44.300321, 33.418537]}}, {"type": "Feature", "properties": {"name": "Shawees", "total": 53}, "geometry": {"type": "Point", "coordinates": [44.0877266667, 36.25178]}}, {"type": "Feature", "properties": {"name": "Shikhan", "total": 695}, "geometry": {"type": "Point", "coordinates": [43.264287, 36.76067]}}, {"type": "Feature", "properties": {"name": "Shoraw", "total": 1}, "geometry": {"type": "Point", "coordinates": [44.395465, 35.522177]}}, {"type": "Feature", "properties": {"name": "Shorawa", "total": 2}, "geometry": {"type": "Point", "coordinates": [44.5023366666666, 35.0768883333333]}}, {"type": "Feature", "properties": {"name": "Sitak", "total": 8}, "geometry": {"type": "Point", "coordinates": [45.44, 35.56]}}, {"type": "Feature", "properties": {"name": "Sulaymaniyah", "total": 14}, "geometry": {"type": "Point", "coordinates": [45.2288683333, 35.6296916667]}}, {"type": "Feature", "properties": {"name": "Sulaymaniyah Center", "total": 3}, "geometry": {"type": "Point", "coordinates": [45.44, 35.56]}}, {"type": "Feature", "properties": {"name": "Takya", "total": 101}, "geometry": {"type": "Point", "coordinates": [44.3691483333, 33.2256666667]}}, {"type": "Feature", "properties": {"name": "Takya1", "total": 3}, "geometry": {"type": "Point", "coordinates": [44.366194, 33.229541]}}, {"type": "Feature", "properties": {"name": "Tal Al Hawa", "total": 6}, "geometry": {"type": "Point", "coordinates": [42.3115433333, 36.7457316667]}}, {"type": "Feature", "properties": {"name": "Tanjaro", "total": 24}, "geometry": {"type": "Point", "coordinates": [45.4480616667, 35.451175]}}, {"type": "Feature", "properties": {"name": "Tarmiya", "total": 64}, "geometry": {"type": "Point", "coordinates": [44.382769, 33.662647]}}, {"type": "Feature", "properties": {"name": "Tazar De", "total": 175}, "geometry": {"type": "Point", "coordinates": [45.45034, 34.706155]}}, {"type": "Feature", "properties": {"name": "Topaskar", "total": 15}, "geometry": {"type": "Point", "coordinates": [45.28, 34.63]}}, {"type": "Feature", "properties": {"name": "Topzawa", "total": 22}, "geometry": {"type": "Point", "coordinates": [44.2800316667, 35.3942933333]}}, {"type": "Feature", "properties": {"name": "Turkalan", "total": 13}, "geometry": {"type": "Point", "coordinates": [44.276325, 35.3805316667]}}, {"type": "Feature", "properties": {"name": "Um _Baneen", "total": 8}, "geometry": {"type": "Point", "coordinates": [44.0323666667, 32.6068866667]}}, {"type": "Feature", "properties": {"name": "Wana", "total": 5269}, "geometry": {"type": "Point", "coordinates": [42.753629, 36.529997]}}, {"type": "Feature", "properties": {"name": "Ya Hussien1", "total": 36}, "geometry": {"type": "Point", "coordinates": [44.32639, 32.13971]}}, {"type": "Feature", "properties": {"name": "Yahyawa", "total": 695}, "geometry": {"type": "Point", "coordinates": [44.4941966667, 35.3266966667]}}, {"type": "Feature", "properties": {"name": "Yahyawa1", "total": 288}, "geometry": {"type": "Point", "coordinates": [44.4968566666666, 35.3276033333333]}}, {"type": "Feature", "properties": {"name": "Zaiton_City", "total": 71}, "geometry": {"type": "Point", "coordinates": [44.071485, 36.131625]}}, {"type": "Feature", "properties": {"name": "Zaiton_City1", "total": 45}, "geometry": {"type": "Point", "coordinates": [44.079994, 36.153309]}}, {"type": "Feature", "properties": {"name": "Zawita", "total": 236}, "geometry": {"type": "Point", "coordinates": [43.12, 36.9]}}, {"type": "Feature", "properties": {"name": "Zummar", "total": 107}, "geometry": {"type": "Point", "coordinates": [42.5953766667, 36.65303]}}]}