{"type": "FeatureCollection","crs":                     {"type": "name", "properties": { "name":                     "urn:ogc:def:crs:OGC:1.3:CRS84" } },"features": [{"type": "Feature", "properties": {"name": "Aiden  New Alyawa", "total": 14}, "geometry": {"type": "Point", "coordinates": [44.6130416667, 33.7161183333]}}, {"type": "Feature", "properties": {"name": "Al Hussain Medical City", "total": 4}, "geometry": {"type": "Point", "coordinates": [44.0327316667, 32.6070233333]}}, {"type": "Feature", "properties": {"name": "Al-Amal", "total": 449}, "geometry": {"type": "Point", "coordinates": [42.25, 32.03]}}, {"type": "Feature", "properties": {"name": "Al-Obaidi", "total": 36}, "geometry": {"type": "Point", "coordinates": [41.219072, 34.417309]}}, {"type": "Feature", "properties": {"name": "Al-Salam", "total": 956}, "geometry": {"type": "Point", "coordinates": [43.85, 33.16]}}, {"type": "Feature", "properties": {"name": "Al-Wand 1", "total": 4}, "geometry": {"type": "Point", "coordinates": [44.6126683333, 33.7161783333]}}, {"type": "Feature", "properties": {"name": "Aliawa", "total": 43}, "geometry": {"type": "Point", "coordinates": [45.326362, 34.342164]}}, {"type": "Feature", "properties": {"name": "Ankawa-Mall", "total": 17}, "geometry": {"type": "Point", "coordinates": [43.99, 36.22]}}, {"type": "Feature", "properties": {"name": "Arbat Idp", "total": 1208}, "geometry": {"type": "Point", "coordinates": [45.590574, 35.4344959]}}, {"type": "Feature", "properties": {"name": "Arbat Refugee", "total": 668}, "geometry": {"type": "Point", "coordinates": [45.59069, 35.43057]}}, {"type": "Feature", "properties": {"name": "Ashti", "total": 147}, "geometry": {"type": "Point", "coordinates": [45.58862, 35.422128]}}, {"type": "Feature", "properties": {"name": "Awen Eshar", "total": 181}, "geometry": {"type": "Point", "coordinates": [44.07536, 36.1157]}}, {"type": "Feature", "properties": {"name": "Babil Hotel", "total": 1}, "geometry": {"type": "Point", "coordinates": [44.4350483333, 32.5156083333]}}, {"type": "Feature", "properties": {"name": "Baharka", "total": 748}, "geometry": {"type": "Point", "coordinates": [44.03, 36.31]}}, {"type": "Feature", "properties": {"name": "Bajit Kandala", "total": 554}, "geometry": {"type": "Point", "coordinates": [42.4409, 37.0535]}}, {"type": "Feature", "properties": {"name": "Bajit Kandala2", "total": 240}, "geometry": {"type": "Point", "coordinates": [42.4409, 37.0535]}}, {"type": "Feature", "properties": {"name": "Bardarash", "total": 1324}, "geometry": {"type": "Point", "coordinates": [43.56717, 36.49315]}}, {"type": "Feature", "properties": {"name": "Barika", "total": 40}, "geometry": {"type": "Point", "coordinates": [45.44, 35.56]}}, {"type": "Feature", "properties": {"name": "Bariz City", "total": 32}, "geometry": {"type": "Point", "coordinates": [45.44, 35.56]}}, {"type": "Feature", "properties": {"name": "Basirma", "total": 1642}, "geometry": {"type": "Point", "coordinates": [44.3667, 36.4833]}}, {"type": "Feature", "properties": {"name": "Basrah 5Miles", "total": 23}, "geometry": {"type": "Point", "coordinates": [47.7596, 30.5497683333]}}, {"type": "Feature", "properties": {"name": "Berseve 2", "total": 641}, "geometry": {"type": "Point", "coordinates": [42.85398, 37.1798]}}, {"type": "Feature", "properties": {"name": "Brazilian", "total": 20}, "geometry": {"type": "Point", "coordinates": [44.03, 36.31]}}, {"type": "Feature", "properties": {"name": "Chamchamal", "total": 15}, "geometry": {"type": "Point", "coordinates": [44.8283983333, 35.5183683333]}}, {"type": "Feature", "properties": {"name": "Chamishku", "total": 1213}, "geometry": {"type": "Point", "coordinates": [42.668, 37.178]}}, {"type": "Feature", "properties": {"name": "Darashakran", "total": 738}, "geometry": {"type": "Point", "coordinates": [43.893692, 36.46948]}}, {"type": "Feature", "properties": {"name": "Dawodia", "total": 544}, "geometry": {"type": "Point", "coordinates": [43.222998, 37.089891]}}, {"type": "Feature", "properties": {"name": "Debaga", "total": 77}, "geometry": {"type": "Point", "coordinates": [43.8, 35.87]}}, {"type": "Feature", "properties": {"name": "Dokan", "total": 52}, "geometry": {"type": "Point", "coordinates": [45.44, 35.56]}}, {"type": "Feature", "properties": {"name": "Domiz", "total": 814}, "geometry": {"type": "Point", "coordinates": [42.900624, 36.788012]}}, {"type": "Feature", "properties": {"name": "Domiz2", "total": 182}, "geometry": {"type": "Point", "coordinates": [42.900624, 36.788012]}}, {"type": "Feature", "properties": {"name": "Erbil", "total": 370}, "geometry": {"type": "Point", "coordinates": [44.0, 36.19]}}, {"type": "Feature", "properties": {"name": "Gawilan", "total": 623}, "geometry": {"type": "Point", "coordinates": [43.61581064, 36.33849565]}}, {"type": "Feature", "properties": {"name": "Guss Swalem", "total": 8}, "geometry": {"type": "Point", "coordinates": [44.403805, 32.4185216667]}}, {"type": "Feature", "properties": {"name": "Habeeb Almalih Hc", "total": 53}, "geometry": {"type": "Point", "coordinates": [44.0110733333, 36.2319566667]}}, {"type": "Feature", "properties": {"name": "Harsham", "total": 295}, "geometry": {"type": "Point", "coordinates": [43.994913, 36.256285]}}, {"type": "Feature", "properties": {"name": "Iraq Tent\n", "total": 12}, "geometry": {"type": "Point", "coordinates": [44.3564116667, 33.12995]}}, {"type": "Feature", "properties": {"name": "Kabarto 2", "total": 64}, "geometry": {"type": "Point", "coordinates": [42.8584683333, 36.78845]}}, {"type": "Feature", "properties": {"name": "Kasnazan", "total": 6}, "geometry": {"type": "Point", "coordinates": [44.13, 36.2]}}, {"type": "Feature", "properties": {"name": "Khanke", "total": 320}, "geometry": {"type": "Point", "coordinates": [42.7709883333, 36.7831166667]}}, {"type": "Feature", "properties": {"name": "Kowergosek", "total": 683}, "geometry": {"type": "Point", "coordinates": [43.8112815, 36.3460809]}}, {"type": "Feature", "properties": {"name": "Mamilian", "total": 38}, "geometry": {"type": "Point", "coordinates": [42.9640166667, 36.8715366667]}}, {"type": "Feature", "properties": {"name": "Mangesh\n", "total": 434}, "geometry": {"type": "Point", "coordinates": [43.016503, 36.855727]}}, {"type": "Feature", "properties": {"name": "Martshmoony", "total": 132}, "geometry": {"type": "Point", "coordinates": [43.987, 36.235]}}, {"type": "Feature", "properties": {"name": "Ozal City", "total": 71}, "geometry": {"type": "Point", "coordinates": [44.0, 36.19]}}, {"type": "Feature", "properties": {"name": "Piramagroon", "total": 46}, "geometry": {"type": "Point", "coordinates": [45.146705, 35.7328933333]}}, {"type": "Feature", "properties": {"name": "Qaladiza", "total": 23}, "geometry": {"type": "Point", "coordinates": [45.127778, 36.183333]}}, {"type": "Feature", "properties": {"name": "Qoratu", "total": 266}, "geometry": {"type": "Point", "coordinates": [45.28, 34.63]}}, {"type": "Feature", "properties": {"name": "Qushtapa", "total": 1087}, "geometry": {"type": "Point", "coordinates": [43.98089111, 36.019313]}}, {"type": "Feature", "properties": {"name": "Raniya", "total": 255}, "geometry": {"type": "Point", "coordinates": [45.44, 35.56]}}, {"type": "Feature", "properties": {"name": "Saad", "total": 14}, "geometry": {"type": "Point", "coordinates": [44.6127366667, 33.716135]}}, {"type": "Feature", "properties": {"name": "Salah-Aga", "total": 4}, "geometry": {"type": "Point", "coordinates": [45.28, 34.63]}}, {"type": "Feature", "properties": {"name": "Says City", "total": 5}, "geometry": {"type": "Point", "coordinates": [45.68, 35.11]}}, {"type": "Feature", "properties": {"name": "Sejea", "total": 334}, "geometry": {"type": "Point", "coordinates": [42.8863416667, 36.91248]}}, {"type": "Feature", "properties": {"name": "Shaqlawa", "total": 171}, "geometry": {"type": "Point", "coordinates": [44.33, 36.39]}}, {"type": "Feature", "properties": {"name": "Shariya", "total": 3549}, "geometry": {"type": "Point", "coordinates": [42.96181, 36.79687]}}, {"type": "Feature", "properties": {"name": "Shikhan", "total": 801}, "geometry": {"type": "Point", "coordinates": [43.26904, 36.72461]}}, {"type": "Feature", "properties": {"name": "Sitak", "total": 8}, "geometry": {"type": "Point", "coordinates": [45.44, 35.56]}}, {"type": "Feature", "properties": {"name": "Sulaymaniyah", "total": 74}, "geometry": {"type": "Point", "coordinates": [45.44, 35.56]}}, {"type": "Feature", "properties": {"name": "Sulaymaniyah Center", "total": 24}, "geometry": {"type": "Point", "coordinates": [45.44, 35.56]}}, {"type": "Feature", "properties": {"name": "Takya", "total": 13}, "geometry": {"type": "Point", "coordinates": [44.3691483333, 33.2256666667]}}, {"type": "Feature", "properties": {"name": "Topaskar", "total": 1}, "geometry": {"type": "Point", "coordinates": [45.28, 34.63]}}, {"type": "Feature", "properties": {"name": "Um _Baneen", "total": 311}, "geometry": {"type": "Point", "coordinates": [44.0323666667, 32.6068866667]}}, {"type": "Feature", "properties": {"name": "Wana", "total": 240}, "geometry": {"type": "Point", "coordinates": [42.84, 36.85]}}, {"type": "Feature", "properties": {"name": "Zawita", "total": 815}, "geometry": {"type": "Point", "coordinates": [43.12, 36.9]}}, {"type": "Feature", "properties": {"name": "Zaytona", "total": 183}, "geometry": {"type": "Point", "coordinates": [44.0709, 36.1417]}}, {"type": "Feature", "properties": {"name": "Zummar", "total": 1341}, "geometry": {"type": "Point", "coordinates": [42.63, 36.76]}}]}