{"type": "FeatureCollection","crs":                     {"type": "name", "properties": { "name":                     "urn:ogc:def:crs:OGC:1.3:CRS84" } },"features": [{"type": "Feature", "properties": {"name": "Al- Amal Al -Manshood", "total": 1}, "geometry": {"type": "Point", "coordinates": [43.8538116666666, 33.14711]}}, {"type": "Feature", "properties": {"name": "Al-Habanyia1", "total": 9}, "geometry": {"type": "Point", "coordinates": [43.571611, 33.2448]}}, {"type": "Feature", "properties": {"name": "Al-Salam", "total": 1}, "geometry": {"type": "Point", "coordinates": [43.85, 33.16]}}, {"type": "Feature", "properties": {"name": "Balad", "total": 1}, "geometry": {"type": "Point", "coordinates": [44.150284, 34.01097]}}, {"type": "Feature", "properties": {"name": "Bashair", "total": 4}, "geometry": {"type": "Point", "coordinates": [46.24121, 31.0636466667]}}, {"type": "Feature", "properties": {"name": "Dahuk", "total": 1}, "geometry": {"type": "Point", "coordinates": [42.949419, 36.864712]}}, {"type": "Feature", "properties": {"name": "Kowergosek", "total": 3}, "geometry": {"type": "Point", "coordinates": [43.8119003542573, 36.3453310247561]}}, {"type": "Feature", "properties": {"name": "Ma Baina Al Harameen", "total": 3}, "geometry": {"type": "Point", "coordinates": [44.3131433333, 32.176755]}}]}