{"type": "FeatureCollection","crs":                     {"type": "name", "properties": { "name":                     "urn:ogc:def:crs:OGC:1.3:CRS84" } },"features": [{"type": "Feature", "properties": {"name": "Abu-Wajna", "total": 1155}, "geometry": {"type": "Point", "coordinates": [42.624142, 36.692167]}}, {"type": "Feature", "properties": {"name": "Abu_Ghraib", "total": 603}, "geometry": {"type": "Point", "coordinates": [44.082918, 33.29612]}}, {"type": "Feature", "properties": {"name": "Afak Road Houses", "total": 57}, "geometry": {"type": "Point", "coordinates": [44.886024, 31.971957]}}, {"type": "Feature", "properties": {"name": "Aiden  New Alyawa", "total": 295}, "geometry": {"type": "Point", "coordinates": [44.6130416667, 33.7161183333]}}, {"type": "Feature", "properties": {"name": "Al Bakriya", "total": 98}, "geometry": {"type": "Point", "coordinates": [44.2571733333, 33.3204583333]}}, {"type": "Feature", "properties": {"name": "Al Batraa", "total": 1207}, "geometry": {"type": "Point", "coordinates": [44.012341, 33.131705]}}, {"type": "Feature", "properties": {"name": "Al Hussain Medical City", "total": 341}, "geometry": {"type": "Point", "coordinates": [44.0327316667, 32.6070233333]}}, {"type": "Feature", "properties": {"name": "Al Khalidia", "total": 171}, "geometry": {"type": "Point", "coordinates": [43.53681, 33.373732]}}, {"type": "Feature", "properties": {"name": "Al Sabia", "total": 3}, "geometry": {"type": "Point", "coordinates": [45.5406966667, 31.202415]}}, {"type": "Feature", "properties": {"name": "Al Shaabi", "total": 212}, "geometry": {"type": "Point", "coordinates": [44.334775, 35.500745]}}, {"type": "Feature", "properties": {"name": "Al- Amal Al -Manshood", "total": 2083}, "geometry": {"type": "Point", "coordinates": [43.85168, 33.148139]}}, {"type": "Feature", "properties": {"name": "Al-Abadi", "total": 342}, "geometry": {"type": "Point", "coordinates": [44.44, 35.13]}}, {"type": "Feature", "properties": {"name": "Al-Abayechi", "total": 63}, "geometry": {"type": "Point", "coordinates": [44.390423, 33.661975]}}, {"type": "Feature", "properties": {"name": "Al-Abyad", "total": 1430}, "geometry": {"type": "Point", "coordinates": [44.022146, 33.14047]}}, {"type": "Feature", "properties": {"name": "Al-Ahell", "total": 391}, "geometry": {"type": "Point", "coordinates": [44.083895, 33.283734]}}, {"type": "Feature", "properties": {"name": "Al-Alam", "total": 223}, "geometry": {"type": "Point", "coordinates": [43.701102, 34.710135]}}, {"type": "Feature", "properties": {"name": "Al-Amal", "total": 897}, "geometry": {"type": "Point", "coordinates": [42.25, 32.03]}}, {"type": "Feature", "properties": {"name": "Al-Amal Al-Manshud", "total": 1002}, "geometry": {"type": "Point", "coordinates": [44.034211, 33.307281]}}, {"type": "Feature", "properties": {"name": "Al-Asfar", "total": 3087}, "geometry": {"type": "Point", "coordinates": [44.0144583333, 33.1466683333]}}, {"type": "Feature", "properties": {"name": "Al-Habanyia", "total": 3037}, "geometry": {"type": "Point", "coordinates": [43.571611, 33.2448]}}, {"type": "Feature", "properties": {"name": "Al-Malha", "total": 111}, "geometry": {"type": "Point", "coordinates": [44.100683, 35.691301]}}, {"type": "Feature", "properties": {"name": "Al-Mawqee Al-Askary", "total": 70}, "geometry": {"type": "Point", "coordinates": [44.922727, 31.980004]}}, {"type": "Feature", "properties": {"name": "Al-Nabi Younis", "total": 4}, "geometry": {"type": "Point", "coordinates": [44.643067, 33.344709]}}, {"type": "Feature", "properties": {"name": "Al-Nasr Wa Al-Salam", "total": 78}, "geometry": {"type": "Point", "coordinates": [44.029029, 33.309256]}}, {"type": "Feature", "properties": {"name": "Al-Nedaa Mosque", "total": 219}, "geometry": {"type": "Point", "coordinates": [44.384234, 33.37447]}}, {"type": "Feature", "properties": {"name": "Al-Obaidi", "total": 416}, "geometry": {"type": "Point", "coordinates": [41.219072, 34.417309]}}, {"type": "Feature", "properties": {"name": "Al-Rahalyia", "total": 157}, "geometry": {"type": "Point", "coordinates": [43.38848, 32.765046]}}, {"type": "Feature", "properties": {"name": "Al-Salam", "total": 2405}, "geometry": {"type": "Point", "coordinates": [43.85, 33.16]}}, {"type": "Feature", "properties": {"name": "Al-Taawn", "total": 360}, "geometry": {"type": "Point", "coordinates": [44.065528, 34.076353]}}, {"type": "Feature", "properties": {"name": "Al-Wand 1", "total": 275}, "geometry": {"type": "Point", "coordinates": [45.381052, 34.365659]}}, {"type": "Feature", "properties": {"name": "Alaskan", "total": 869}, "geometry": {"type": "Point", "coordinates": [44.97591333, 31.98094667]}}, {"type": "Feature", "properties": {"name": "Albatar & Caravanat Alzurgan", "total": 257}, "geometry": {"type": "Point", "coordinates": [45.7161566667, 32.5518166667]}}, {"type": "Feature", "properties": {"name": "Ali Abar", "total": 19}, "geometry": {"type": "Point", "coordinates": [42.3328466667, 36.9292533333]}}, {"type": "Feature", "properties": {"name": "Aliawa", "total": 383}, "geometry": {"type": "Point", "coordinates": [45.326362, 34.342164]}}, {"type": "Feature", "properties": {"name": "Aliyouka", "total": 24}, "geometry": {"type": "Point", "coordinates": [42.247435, 36.92368]}}, {"type": "Feature", "properties": {"name": "All Janib Alsageer", "total": 158}, "geometry": {"type": "Point", "coordinates": [44.0323516667, 32.6067416667]}}, {"type": "Feature", "properties": {"name": "All Mohanaweia And All Salaheias Mawakeb", "total": 6}, "geometry": {"type": "Point", "coordinates": [44.934263, 32.1424]}}, {"type": "Feature", "properties": {"name": "Allai", "total": 35}, "geometry": {"type": "Point", "coordinates": [45.17624, 35.58074]}}, {"type": "Feature", "properties": {"name": "Alqosh", "total": 438}, "geometry": {"type": "Point", "coordinates": [43.098872, 36.736717]}}, {"type": "Feature", "properties": {"name": "Alscak", "total": 3}, "geometry": {"type": "Point", "coordinates": [45.2719416667, 31.339005]}}, {"type": "Feature", "properties": {"name": "Alshohadaa_Complxe", "total": 134}, "geometry": {"type": "Point", "coordinates": [47.02127, 30.9715216667]}}, {"type": "Feature", "properties": {"name": "Alzahra", "total": 3}, "geometry": {"type": "Point", "coordinates": [45.212895, 31.5225683333]}}, {"type": "Feature", "properties": {"name": "Amerli", "total": 33}, "geometry": {"type": "Point", "coordinates": [44.586425, 34.725706]}}, {"type": "Feature", "properties": {"name": "Ankawa-Mall", "total": 376}, "geometry": {"type": "Point", "coordinates": [43.991834, 36.237448]}}, {"type": "Feature", "properties": {"name": "Arbat Idp", "total": 12941}, "geometry": {"type": "Point", "coordinates": [45.590574, 35.4344959]}}, {"type": "Feature", "properties": {"name": "Arbat Refugee", "total": 9261}, "geometry": {"type": "Point", "coordinates": [45.59069, 35.43057]}}, {"type": "Feature", "properties": {"name": "Ashti", "total": 4111}, "geometry": {"type": "Point", "coordinates": [45.5886199999999, 35.422128]}}, {"type": "Feature", "properties": {"name": "Awen Eshar", "total": 462}, "geometry": {"type": "Point", "coordinates": [44.070651, 36.140377]}}, {"type": "Feature", "properties": {"name": "Babil Hotel", "total": 921}, "geometry": {"type": "Point", "coordinates": [44.4350483333, 32.5156083333]}}, {"type": "Feature", "properties": {"name": "Baharka", "total": 8337}, "geometry": {"type": "Point", "coordinates": [44.03, 36.31]}}, {"type": "Feature", "properties": {"name": "Bajit Kandala", "total": 16134}, "geometry": {"type": "Point", "coordinates": [42.4409, 37.0535]}}, {"type": "Feature", "properties": {"name": "Bajit Kandala2", "total": 548}, "geometry": {"type": "Point", "coordinates": [42.4409, 37.0535]}}, {"type": "Feature", "properties": {"name": "Bajwan", "total": 78}, "geometry": {"type": "Point", "coordinates": [44.28012, 35.543005]}}, {"type": "Feature", "properties": {"name": "Balad", "total": 1469}, "geometry": {"type": "Point", "coordinates": [44.150284, 34.01097]}}, {"type": "Feature", "properties": {"name": "Bardarash", "total": 12450}, "geometry": {"type": "Point", "coordinates": [43.56717, 36.49315]}}, {"type": "Feature", "properties": {"name": "Barika", "total": 615}, "geometry": {"type": "Point", "coordinates": [45.44, 35.56]}}, {"type": "Feature", "properties": {"name": "Bariz City", "total": 165}, "geometry": {"type": "Point", "coordinates": [45.34055, 35.59222]}}, {"type": "Feature", "properties": {"name": "Bashair", "total": 3}, "geometry": {"type": "Point", "coordinates": [46.24121, 31.0636466667]}}, {"type": "Feature", "properties": {"name": "Basirma", "total": 9330}, "geometry": {"type": "Point", "coordinates": [44.3409937848482, 36.4966868474105]}}, {"type": "Feature", "properties": {"name": "Basrah 5Miles", "total": 710}, "geometry": {"type": "Point", "coordinates": [47.7596, 30.5497683333]}}, {"type": "Feature", "properties": {"name": "Bazian", "total": 194}, "geometry": {"type": "Point", "coordinates": [45.15723, 35.58311]}}, {"type": "Feature", "properties": {"name": "Berseve 2", "total": 10721}, "geometry": {"type": "Point", "coordinates": [42.85398, 37.1798]}}, {"type": "Feature", "properties": {"name": "Bijeel", "total": 22}, "geometry": {"type": "Point", "coordinates": [44.01866, 36.72379]}}, {"type": "Feature", "properties": {"name": "Brazilian", "total": 709}, "geometry": {"type": "Point", "coordinates": [44.328905, 36.4024883333]}}, {"type": "Feature", "properties": {"name": "Bzsbiz", "total": 28}, "geometry": {"type": "Point", "coordinates": [43.865164, 33.174731]}}, {"type": "Feature", "properties": {"name": "Chamchamal", "total": 2072}, "geometry": {"type": "Point", "coordinates": [44.8098516667, 35.5265483333]}}, {"type": "Feature", "properties": {"name": "Chamishku", "total": 10878}, "geometry": {"type": "Point", "coordinates": [42.667525, 37.1757833333]}}, {"type": "Feature", "properties": {"name": "Dahuk", "total": 1390}, "geometry": {"type": "Point", "coordinates": [42.949419, 36.864712]}}, {"type": "Feature", "properties": {"name": "Darashakran", "total": 23528}, "geometry": {"type": "Point", "coordinates": [43.891717900005, 36.4718439867]}}, {"type": "Feature", "properties": {"name": "Dary Clinic", "total": 47}, "geometry": {"type": "Point", "coordinates": [44.398626, 33.32276]}}, {"type": "Feature", "properties": {"name": "Dawanesh", "total": 64}, "geometry": {"type": "Point", "coordinates": [42.855292, 36.504894]}}, {"type": "Feature", "properties": {"name": "Dawodia", "total": 8159}, "geometry": {"type": "Point", "coordinates": [43.222998, 37.089891]}}, {"type": "Feature", "properties": {"name": "Debaga", "total": 2126}, "geometry": {"type": "Point", "coordinates": [43.9940733333, 36.2194816667]}}, {"type": "Feature", "properties": {"name": "Dokan", "total": 1729}, "geometry": {"type": "Point", "coordinates": [45.4033133333, 35.565845]}}, {"type": "Feature", "properties": {"name": "Domez", "total": 399}, "geometry": {"type": "Point", "coordinates": [44.3762866667, 35.3863533333]}}, {"type": "Feature", "properties": {"name": "Domiz", "total": 9621}, "geometry": {"type": "Point", "coordinates": [42.8846766667, 36.7811566667]}}, {"type": "Feature", "properties": {"name": "Domiz2", "total": 4167}, "geometry": {"type": "Point", "coordinates": [42.8912633333, 36.7638]}}, {"type": "Feature", "properties": {"name": "Domiz_Nin", "total": 126}, "geometry": {"type": "Point", "coordinates": [42.613336, 36.71139]}}, {"type": "Feature", "properties": {"name": "Ekram Zobaa", "total": 639}, "geometry": {"type": "Point", "coordinates": [43.953276, 33.22936]}}, {"type": "Feature", "properties": {"name": "Erbil", "total": 136}, "geometry": {"type": "Point", "coordinates": [44.0, 36.19]}}, {"type": "Feature", "properties": {"name": "Erbil Center", "total": 67}, "geometry": {"type": "Point", "coordinates": [44.0, 36.19]}}, {"type": "Feature", "properties": {"name": "Esiyan", "total": 80}, "geometry": {"type": "Point", "coordinates": [43.2662883333, 36.722525]}}, {"type": "Feature", "properties": {"name": "Eyes Of Missan", "total": 1634}, "geometry": {"type": "Point", "coordinates": [47.117555, 31.8490766667]}}, {"type": "Feature", "properties": {"name": "Galaxy", "total": 22}, "geometry": {"type": "Point", "coordinates": [44.3289366667, 36.4028116667]}}, {"type": "Feature", "properties": {"name": "Garmawa", "total": 583}, "geometry": {"type": "Point", "coordinates": [43.2371466667, 36.646035]}}, {"type": "Feature", "properties": {"name": "Gawilan", "total": 12303}, "geometry": {"type": "Point", "coordinates": [43.61581064, 36.33849565]}}, {"type": "Feature", "properties": {"name": "Group In  V. Alhadi", "total": 1}, "geometry": {"type": "Point", "coordinates": [45.3162816667, 31.2573566667]}}, {"type": "Feature", "properties": {"name": "Gulan City", "total": 192}, "geometry": {"type": "Point", "coordinates": [44.035907, 36.309013]}}, {"type": "Feature", "properties": {"name": "Guss Swalem", "total": 1762}, "geometry": {"type": "Point", "coordinates": [44.403805, 32.4185216667]}}, {"type": "Feature", "properties": {"name": "Habeeb-All-Malih", "total": 2190}, "geometry": {"type": "Point", "coordinates": [44.0110433333, 36.23216]}}, {"type": "Feature", "properties": {"name": "Harsham", "total": 3933}, "geometry": {"type": "Point", "coordinates": [43.994913, 36.256285]}}, {"type": "Feature", "properties": {"name": "Hay Al Furat - 1", "total": 6}, "geometry": {"type": "Point", "coordinates": [44.90795, 32.010288]}}, {"type": "Feature", "properties": {"name": "Hay Al Furat - 2", "total": 6}, "geometry": {"type": "Point", "coordinates": [44.902471, 32.019229]}}, {"type": "Feature", "properties": {"name": "Hay Alwasiti", "total": 50}, "geometry": {"type": "Point", "coordinates": [44.348578, 35.420021]}}, {"type": "Feature", "properties": {"name": "Hay Asraa", "total": 148}, "geometry": {"type": "Point", "coordinates": [44.402439, 35.429539]}}, {"type": "Feature", "properties": {"name": "Hevi", "total": 40}, "geometry": {"type": "Point", "coordinates": [43.00589, 36.850119]}}, {"type": "Feature", "properties": {"name": "Hiba Mohsin Ahmed", "total": 494}, "geometry": {"type": "Point", "coordinates": [44.28099, 32.280443]}}, {"type": "Feature", "properties": {"name": "Huzairan", "total": 50}, "geometry": {"type": "Point", "coordinates": [44.342891, 35.409465]}}, {"type": "Feature", "properties": {"name": "Iraq_Tent", "total": 323}, "geometry": {"type": "Point", "coordinates": [44.3564116667, 33.12995]}}, {"type": "Feature", "properties": {"name": "Kabarto 1", "total": 345}, "geometry": {"type": "Point", "coordinates": [42.858385, 36.7883316667]}}, {"type": "Feature", "properties": {"name": "Kabarto 2", "total": 6108}, "geometry": {"type": "Point", "coordinates": [42.858385, 36.7883316667]}}, {"type": "Feature", "properties": {"name": "Kalak", "total": 236}, "geometry": {"type": "Point", "coordinates": [43.673424, 36.272136]}}, {"type": "Feature", "properties": {"name": "Kalhe", "total": 226}, "geometry": {"type": "Point", "coordinates": [42.2689233333, 36.956605]}}, {"type": "Feature", "properties": {"name": "Kasnazan", "total": 108}, "geometry": {"type": "Point", "coordinates": [44.13, 36.2]}}, {"type": "Feature", "properties": {"name": "Kerbala", "total": 219}, "geometry": {"type": "Point", "coordinates": [44.07268, 32.5577783333]}}, {"type": "Feature", "properties": {"name": "Khanaqin", "total": 52}, "geometry": {"type": "Point", "coordinates": [45.383752, 34.349796]}}, {"type": "Feature", "properties": {"name": "Khanke", "total": 14872}, "geometry": {"type": "Point", "coordinates": [42.7709883333, 36.7831166667]}}, {"type": "Feature", "properties": {"name": "Khernabat Agiculture", "total": 2348}, "geometry": {"type": "Point", "coordinates": [44.192407, 33.22229]}}, {"type": "Feature", "properties": {"name": "Kowergosek", "total": 15746}, "geometry": {"type": "Point", "coordinates": [43.8119003542573, 36.3453310247561]}}, {"type": "Feature", "properties": {"name": "Kumait Cente", "total": 182}, "geometry": {"type": "Point", "coordinates": [46.8829733333, 32.031695]}}, {"type": "Feature", "properties": {"name": "Laylan", "total": 20}, "geometry": {"type": "Point", "coordinates": [45.38222, 35.5795583333]}}, {"type": "Feature", "properties": {"name": "Ma Baina Al Harameen", "total": 120}, "geometry": {"type": "Point", "coordinates": [44.3131433333, 32.176755]}}, {"type": "Feature", "properties": {"name": "Mamilian", "total": 5674}, "geometry": {"type": "Point", "coordinates": [42.9640166667, 36.8715366667]}}, {"type": "Feature", "properties": {"name": "Mamrashan", "total": 461}, "geometry": {"type": "Point", "coordinates": [43.4337083333, 36.6707316667]}}, {"type": "Feature", "properties": {"name": "Mamzawa", "total": 849}, "geometry": {"type": "Point", "coordinates": [43.96, 36.11]}}, {"type": "Feature", "properties": {"name": "Mangesh", "total": 403}, "geometry": {"type": "Point", "coordinates": [43.016503, 36.855727]}}, {"type": "Feature", "properties": {"name": "Mart Shmoni _Kasnazan", "total": 6109}, "geometry": {"type": "Point", "coordinates": [44.1464364713244, 36.2062679087604]}}, {"type": "Feature", "properties": {"name": "Martshmoony", "total": 14293}, "geometry": {"type": "Point", "coordinates": [43.987, 36.235]}}, {"type": "Feature", "properties": {"name": "Masaka", "total": 90}, "geometry": {"type": "Point", "coordinates": [42.3030783333, 36.9772783333]}}, {"type": "Feature", "properties": {"name": "Modern Village", "total": 64}, "geometry": {"type": "Point", "coordinates": [44.9179566667, 31.9878833333]}}, {"type": "Feature", "properties": {"name": "Mokb", "total": 15}, "geometry": {"type": "Point", "coordinates": [44.922185, 31.997605]}}, {"type": "Feature", "properties": {"name": "Mosqnes", "total": 25}, "geometry": {"type": "Point", "coordinates": [44.9825216667, 31.7175966667]}}, {"type": "Feature", "properties": {"name": "Mosquest And Modernvillage", "total": 24}, "geometry": {"type": "Point", "coordinates": [44.98245, 31.7175883333]}}, {"type": "Feature", "properties": {"name": "Musharaf Abeet", "total": 117}, "geometry": {"type": "Point", "coordinates": [42.828946, 36.511345]}}, {"type": "Feature", "properties": {"name": "Omar Khalid", "total": 11}, "geometry": {"type": "Point", "coordinates": [42.360274, 36.931943]}}, {"type": "Feature", "properties": {"name": "Ozal City", "total": 227}, "geometry": {"type": "Point", "coordinates": [44.1441783333, 36.2246133333]}}, {"type": "Feature", "properties": {"name": "Piramagroon", "total": 2133}, "geometry": {"type": "Point", "coordinates": [45.146834, 35.732901]}}, {"type": "Feature", "properties": {"name": "Qadissia", "total": 57}, "geometry": {"type": "Point", "coordinates": [44.421178, 35.415974]}}, {"type": "Feature", "properties": {"name": "Qaladiza", "total": 450}, "geometry": {"type": "Point", "coordinates": [45.127778, 36.183333]}}, {"type": "Feature", "properties": {"name": "Qoratu/Banrasayi", "total": 2752}, "geometry": {"type": "Point", "coordinates": [45.28, 34.63]}}, {"type": "Feature", "properties": {"name": "Qushtapa", "total": 8810}, "geometry": {"type": "Point", "coordinates": [44.0365197678442, 35.9822508097935]}}, {"type": "Feature", "properties": {"name": "Raniya", "total": 2301}, "geometry": {"type": "Point", "coordinates": [45.44, 35.56]}}, {"type": "Feature", "properties": {"name": "Raperin", "total": 1279}, "geometry": {"type": "Point", "coordinates": [45.24527778, 34.65944444]}}, {"type": "Feature", "properties": {"name": "Saad", "total": 161}, "geometry": {"type": "Point", "coordinates": [44.6127366667, 33.716135]}}, {"type": "Feature", "properties": {"name": "Saba Al Bor", "total": 1410}, "geometry": {"type": "Point", "coordinates": [44.15151, 33.459903]}}, {"type": "Feature", "properties": {"name": "Said Alshuhdaa", "total": 544}, "geometry": {"type": "Point", "coordinates": [44.3249583333, 32.1200216667]}}, {"type": "Feature", "properties": {"name": "Said Sadiq", "total": 148}, "geometry": {"type": "Point", "coordinates": [45.86605, 35.36078]}}, {"type": "Feature", "properties": {"name": "Salah-Aga", "total": 61}, "geometry": {"type": "Point", "coordinates": [45.28, 34.63]}}, {"type": "Feature", "properties": {"name": "Samagur", "total": 19}, "geometry": {"type": "Point", "coordinates": [44.641925, 34.885764]}}, {"type": "Feature", "properties": {"name": "Says City", "total": 251}, "geometry": {"type": "Point", "coordinates": [45.34328, 35.60835]}}, {"type": "Feature", "properties": {"name": "Seagy", "total": 5035}, "geometry": {"type": "Point", "coordinates": [42.8795516667, 36.9110783333]}}, {"type": "Feature", "properties": {"name": "Seberden", "total": 1163}, "geometry": {"type": "Point", "coordinates": [44.1002, 36.2039]}}, {"type": "Feature", "properties": {"name": "Shahan City", "total": 2384}, "geometry": {"type": "Point", "coordinates": [44.3290316667, 36.4025133333]}}, {"type": "Feature", "properties": {"name": "Shaqlawa", "total": 1533}, "geometry": {"type": "Point", "coordinates": [44.3289866667, 36.4027616667]}}, {"type": "Feature", "properties": {"name": "Sharya", "total": 30151}, "geometry": {"type": "Point", "coordinates": [42.967528, 36.793444]}}, {"type": "Feature", "properties": {"name": "Shawees", "total": 578}, "geometry": {"type": "Point", "coordinates": [44.0035166667, 36.227365]}}, {"type": "Feature", "properties": {"name": "Shebana", "total": 140}, "geometry": {"type": "Point", "coordinates": [42.3220383333, 36.991425]}}, {"type": "Feature", "properties": {"name": "Shikhan", "total": 13354}, "geometry": {"type": "Point", "coordinates": [43.264287, 36.76067]}}, {"type": "Feature", "properties": {"name": "Shoraw", "total": 7}, "geometry": {"type": "Point", "coordinates": [44.395465, 35.522177]}}, {"type": "Feature", "properties": {"name": "Silo Road", "total": 42}, "geometry": {"type": "Point", "coordinates": [44.908741, 31.927306]}}, {"type": "Feature", "properties": {"name": "Sitak", "total": 151}, "geometry": {"type": "Point", "coordinates": [45.44, 35.56]}}, {"type": "Feature", "properties": {"name": "Sulaymaniyah", "total": 1149}, "geometry": {"type": "Point", "coordinates": [45.2288683333, 35.6296916667]}}, {"type": "Feature", "properties": {"name": "Sulaymaniyah Center", "total": 235}, "geometry": {"type": "Point", "coordinates": [45.44, 35.56]}}, {"type": "Feature", "properties": {"name": "Takya", "total": 1280}, "geometry": {"type": "Point", "coordinates": [44.3691483333, 33.2256666667]}}, {"type": "Feature", "properties": {"name": "Talmoos", "total": 165}, "geometry": {"type": "Point", "coordinates": [42.60055, 36.62887]}}, {"type": "Feature", "properties": {"name": "Tanjaro", "total": 92}, "geometry": {"type": "Point", "coordinates": [45.4480616667, 35.451175]}}, {"type": "Feature", "properties": {"name": "Tarmiya", "total": 470}, "geometry": {"type": "Point", "coordinates": [44.382769, 33.662647]}}, {"type": "Feature", "properties": {"name": "Tazar De", "total": 2712}, "geometry": {"type": "Point", "coordinates": [45.45034, 34.706155]}}, {"type": "Feature", "properties": {"name": "Topaskar", "total": 29}, "geometry": {"type": "Point", "coordinates": [45.28, 34.63]}}, {"type": "Feature", "properties": {"name": "Topzawa", "total": 220}, "geometry": {"type": "Point", "coordinates": [44.2903866667, 35.3892883333]}}, {"type": "Feature", "properties": {"name": "Turkalan", "total": 95}, "geometry": {"type": "Point", "coordinates": [44.276325, 35.3805316667]}}, {"type": "Feature", "properties": {"name": "Um _Baneen", "total": 3228}, "geometry": {"type": "Point", "coordinates": [44.0323666667, 32.6068866667]}}, {"type": "Feature", "properties": {"name": "Wana", "total": 6410}, "geometry": {"type": "Point", "coordinates": [42.753629, 36.529997]}}, {"type": "Feature", "properties": {"name": "Ya Hussien", "total": 51}, "geometry": {"type": "Point", "coordinates": [44.32626, 32.1397666667]}}, {"type": "Feature", "properties": {"name": "Yahyawa", "total": 3183}, "geometry": {"type": "Point", "coordinates": [44.4941966667, 35.3266966667]}}, {"type": "Feature", "properties": {"name": "Zaiton_City", "total": 6618}, "geometry": {"type": "Point", "coordinates": [44.071485, 36.131625]}}, {"type": "Feature", "properties": {"name": "Zawita", "total": 1844}, "geometry": {"type": "Point", "coordinates": [43.12, 36.9]}}, {"type": "Feature", "properties": {"name": "Zeren City", "total": 25}, "geometry": {"type": "Point", "coordinates": [44.0726893059362, 36.2667830336147]}}, {"type": "Feature", "properties": {"name": "Zubydia", "total": 21}, "geometry": {"type": "Point", "coordinates": [45.1595183333, 32.77424]}}, {"type": "Feature", "properties": {"name": "Zummar", "total": 1934}, "geometry": {"type": "Point", "coordinates": [42.5953766667, 36.65303]}}]}